Location Name,Avg LMP,Avg Energy Component,Avg Congestion Component,Avg Marginal Loss Component,Latitude,Longitude
AR.BEARSWMP13.8BSW1P,60.79079212454212,62.67807921245421,-0.0811172161172161,-1.806169871794872,42.683761,-72.950073
AR.BEARSWMP13.8BSW2P,60.79079212454212,62.67807921245421,-0.0811172161172161,-1.806169871794872,42.683761,-72.950073
AR.BERLN_NH22  BRLBD,61.24971840659341,62.67807921245421,-0.1956227106227106,-1.2327380952380953,44.463,-71.1797
AR.MADISON 34.5MADBD,57.63782394688645,62.67807921245421,-2.6864022435897437,-2.3538530219780216,44.781105,-69.913812
AR.NORTHFLD13.8NFD1P,61.79197000915751,62.67807921245421,-0.0475789835164835,-0.8385302197802197,42.611139,-72.468472
AR.NORTHFLD13.8NFD2P,61.79197000915751,62.67807921245421,-0.0475789835164835,-0.8385302197802197,42.611139,-72.468472
AR.NORTHFLD13.8NFD3P,61.79197000915751,62.67807921245421,-0.0475789835164835,-0.8385302197802197,42.611139,-72.468472
AR.NORTHFLD13.8NFD4P,61.79197000915751,62.67807921245421,-0.0475789835164835,-0.8385302197802197,42.611139,-72.468472
AR.POWERSVL115 MLNBD,55.91926053113553,62.67807921245421,-4.387728937728937,-2.3710897435897436,45.618,-68.578306
AR.ROCKY_RV13.8ROCKP,60.69348672161173,62.67807921245421,-0.2547287087912088,-1.729863782051282,41.582662,-73.434252
AR.RUMFD_FL11.5RFRBD,60.380149954212456,62.67807921245421,-0.5308985805860806,-1.7670306776556777,44.550598,-70.543197
AR.VAUGH_PD34.5CARBD,45.452821750321746,45.0747249034749,0.0822265122265122,0.2958703346203346,41.896518,-70.788761
AR.W_BUXTON34.5BONBD,62.57848443223443,62.67807921245421,0.1498546245421245,-0.2494494047619047,43.665932,-70.596579
AR.YARMOUTH6.9 CABBD,62.76869734432234,62.67807921245421,0.1532543498168498,-0.0626362179487179,43.751242,-70.155516
LD.2121A_T 34.5,61.25520947802198,62.67807921245421,-0.7415499084249084,-0.681319826007326,44.1392,-69.0967
LD.5CORNRS 13.2T1 LD,62.272601877289375,62.67807921245421,-0.0131868131868131,-0.392290521978022,42.249705,-72.535697
LD.5CORNRS 13.2T2 LD,62.27230311355311,62.67807921245421,-0.0131868131868131,-0.3925892857142857,42.249705,-72.535697
LD.9DRAGONS115,60.380149954212456,62.67807921245421,-0.5308985805860806,-1.7670306776556777,44.549482,-70.540993
LD.ACUSHNET13.2,63.6451945970696,62.67807921245421,0.0933070054945054,0.8738083791208792,41.670892,-70.913653
LD.ADAMS   23,61.00252632783882,62.67807921245421,-0.0803331043956043,-1.5952197802197805,42.654671,-73.105972
LD.ADMIRAL 23  ,62.58661744505494,62.67807921245421,0.4372378663003663,-0.5286996336996337,41.841648,-71.421239
LD.AGAWAM  13.8,62.07798076923077,62.67807921245421,-0.0114491758241758,-0.5886492673992674,42.090607,-72.635266
LD.ALEWIFE 13.8,63.648984661172165,62.67807921245421,0.1553479853479853,0.8155574633699634,42.391567,-71.143261
LD.ALLINGS 13.8,60.72341117216117,62.67807921245421,-0.2640636446886447,-1.6906043956043957,41.267147,-72.974009
LD.AMES_ST 13.8,63.47886675824176,62.67807921245421,0.085367445054945,0.7154201007326008,42.101401,-71.016738
LD.AMHERST 34.5,62.60529189560439,62.67807921245421,-0.0379029304029304,-0.0348843864468864,42.809003,-71.592836
LD.AMHRST  13.8EAST LD,62.270754349816855,62.67807921245421,-0.0131868131868131,-0.3941380494505495,42.373659,-72.507484
LD.AMHRST  13.8WEST LD,61.37495421245421,62.67807921245421,-0.064951923076923,-1.238173076923077,42.373659,-72.507484
LD.ANDREWSQ13.8110AC LD,63.69617788461539,62.67807921245421,0.1570821886446886,0.8610164835164835,42.329112,-71.058546
LD.ANDREWSQ13.8110BD LD,63.69617788461539,62.67807921245421,0.1570821886446886,0.8610164835164835,42.329112,-71.058546
LD.ANHEUSBH12.5,62.85504807692307,62.67807921245421,0.1443040293040293,0.0326648351648351,42.828673,-71.487222
LD.ANSONIA 13.8,60.1824255952381,62.67807921245421,-0.2994207875457875,-2.19623282967033,41.347378,-73.085694
LD.ARSENE  13.2,63.60034684065934,62.67807921245421,0.0938965201465201,0.828371108058608,41.639936,-70.875174
LD.ASCUTNEY46,63.52779761904762,62.67807921245421,-0.0421279761904761,0.8918463827838828,43.401128,-72.41952
LD.ASHBRNHM13.8,62.89352106227107,62.67807921245421,-0.0426041666666666,0.2580460164835165,42.616864,-71.926728
LD.ASHCREEK13.8,60.49998855311355,62.67807921245421,-0.2544929029304029,-1.9235977564102564,41.156295,-73.234142
LD.ASHFIELD23,61.19722527472527,62.67807921245421,-0.0712591575091575,-1.40959478021978,42.537639,-72.791151
LD.ASHLAND 34.5,63.974717261904765,62.67807921245421,0.0609134615384615,1.235724587912088,43.691333,-71.637667
LD.ATHENSME12.5,58.84205815018315,62.67807921245421,-1.617845695970696,-2.218175366300366,44.944722,-69.65925
LD.AUGSTA_E34.5,60.94799336080587,62.67807921245421,-0.9814468864468864,-0.7486389652014651,44.329432,-69.746281
LD.AYER    69,62.8732967032967,62.67807921245421,0.0612969322344322,0.1339205586080586,42.565954,-71.592952
LD.BAIRD   13.81X_LD,60.34354624542125,62.67807921245421,-0.2705128205128205,-2.0640201465201464,41.185073,-73.144435
LD.BAIRD   13.82X_LD,60.353629807692315,62.67807921245421,-0.2700824175824176,-2.0543669871794874,41.185073,-73.144435
LD.BAKER_ST24.0,63.83072802197802,62.67807921245421,0.1605815018315018,0.9920673076923078,42.2804,-71.1691
LD.BALDWIN 13.8,59.49911401098901,62.67807921245421,-0.355731456043956,-2.8232337454212453,41.524233,-73.039899
LD.BARBOURH23,61.82184065934066,62.67807921245421,0.0748866758241758,-0.931125228937729,41.853718,-72.527973
LD.BARNUM  13.8,60.31496909340659,62.67807921245421,-0.2765750915750916,-2.0865350274725274,41.198313,-73.126331
LD.BARRE   13.8,62.68808035714285,62.67807921245421,-0.0489709249084249,0.0589720695970695,42.391484,-72.098985
LD.BARRE_VT34.5,63.40665178571429,62.67807921245421,0.0705494505494505,0.6580231227106227,44.194315,-72.52246
LD.BARTH_ST115,63.41035256410256,62.67807921245421,0.1484695512820512,0.5838038003663003,42.509177,-70.974421
LD.BATES_RK13.8,60.749696657509155,62.67807921245421,-0.2519860347985347,-1.67639652014652,41.503278,-73.236467
LD.BATES_ST13.8,63.110956959706954,62.67807921245421,0.0918635531135531,0.3410141941391941,41.680064,-71.168162
LD.BATH    34.5,62.421310668498165,62.67807921245421,0.0464869505494505,-0.3032554945054945,43.903257,-69.834797
LD.BEACN_FL13.8,59.62565705128205,62.67807921245421,-0.343213141025641,-2.7092090201465204,41.443639,-73.0688
LD.BEAN_HIL13.8,61.03440132783883,62.67807921245421,-0.0764514652014652,-1.5672264194139196,41.558993,-72.118571
LD.BEARSWMP13.8,60.78282165750915,62.67807921245421,-0.076963141025641,-1.818294413919414,42.683761,-72.950073
LD.BEAVR_PD13.8,63.20371222527473,62.67807921245421,0.0817525183150183,0.4438804945054945,42.074332,-71.424072
LD.BEDFORD 34.5,62.811181318681314,62.67807921245421,0.1452220695970696,-0.0121199633699633,42.944541,-71.463114
LD.BEEBE   34.5,63.82233287545788,62.67807921245421,0.0608505036630036,1.0834031593406594,43.828167,-71.640167
LD.BELFAST 34.5,60.63986836080586,62.67807921245421,-1.076531593406593,-0.9616792582417582,44.456941,-69.039047
LD.BELLWSFL46,63.11128090659341,62.67807921245421,-0.0420787545787545,0.4752804487179487,43.132576,-72.44211
LD.BELLWSFL6.9,63.11128090659341,62.67807921245421,-0.0420787545787545,0.4752804487179487,43.132576,-72.44211
LD.BELLWSFL69,63.11128090659341,62.67807921245421,-0.0420787545787545,0.4752804487179487,43.132576,-72.44211
LD.BELL_RK 34.5,63.11494162087912,62.67807921245421,0.1096268315018315,0.3272355769230769,41.737512,-71.086596
LD.BELMONT 13.8,63.57073374542125,62.67807921245421,0.086407967032967,0.806246565934066,42.06583,-71.054667
LD.BENINGTN46,60.66389652014652,62.67807921245421,-0.0975675366300366,-1.9166151556776556,42.881623,-73.172525
LD.BENINGTN69,60.646112637362634,62.67807921245421,-0.0935794413919414,-1.9383871336996337,42.881623,-73.172525
LD.BERKSHRE23,61.00432463369964,62.67807921245421,-0.0784180402930402,-1.5953365384615386,42.46907,-73.093301
LD.BERLIN  13.8,62.83094665750916,62.67807921245421,0.619669184981685,-0.4668017399267399,41.631931,-72.723246
LD.BERLIN  23,62.83094665750916,62.67807921245421,0.619669184981685,-0.4668017399267399,41.631931,-72.723246
LD.BERLINVT34.5,63.550760073260065,62.67807921245421,0.0701865842490842,0.8024942765567765,44.249821,-72.60343
LD.BERLN_NH22,61.24971840659341,62.67807921245421,-0.1956227106227106,-1.2327380952380953,44.463,-71.1797
LD.BERLN_NH34.5,61.24971840659341,62.67807921245421,-0.1956227106227106,-1.2327380952380953,44.463,-71.1797
LD.BEVERLY 13.2,63.32165865384616,62.67807921245421,0.1480826465201465,0.4954967948717949,42.545718,-70.88675
LD.BIDDEFRD12.5,62.66867330586081,62.67807921245421,0.1490052655677655,-0.1584111721611721,43.467798,-70.492975
LD.BIDDEFRD34.5,62.66867330586081,62.67807921245421,0.1490052655677655,-0.1584111721611721,43.467798,-70.492975
LD.BIGELOW 34.5,57.42727106227106,62.67807921245421,-2.412576694139194,-2.8382314560439563,45.101612,-70.353645
LD.BILERCA 13.2T5 LD,63.34514995421245,62.67807921245421,0.1463679029304029,0.5207028388278387,42.57474,-71.274748
LD.BILERCA 13.2T6 LD,63.53289491758242,62.67807921245421,0.1472023809523809,0.7076133241758242,42.57474,-71.274748
LD.BILERCA 23  T1 LD,63.34514995421245,62.67807921245421,0.1463679029304029,0.5207028388278387,42.57474,-71.274748
LD.BILERCA 23  T2 LD,63.53289491758242,62.67807921245421,0.1472023809523809,0.7076133241758242,42.57474,-71.274748
LD.BIRD_RD 13.8,63.323569139194134,62.67807921245421,0.0913701923076923,0.5541197344322344,42.05234,-71.177392
LD.BLACKBRN115 1X LD,62.25953525641026,62.67807921245421,-0.0412065018315018,-0.3773374542124542,41.733002,-71.443263
LD.BLACKBRN115 2X LD,62.25953525641026,62.67807921245421,-0.0412065018315018,-0.3773374542124542,41.733002,-71.443263
LD.BLACK_RK13.8,60.90182005494506,62.67807921245421,-0.3079246794871795,-1.468334478021978,41.661956,-72.80545
LD.BLACK_RK4.8,61.23541552197802,62.67807921245421,-0.283025412087912,-1.1596382783882784,41.661956,-72.80545
LD.BLACK_RK69,60.61640911172161,62.67807921245421,-0.3352117673992674,-1.7264583333333334,41.661956,-72.80545
LD.BLAIR_PD13.8,63.69416552197802,62.67807921245421,0.1561698717948718,0.8599164377289377,42.395599,-71.157303
LD.BLANFORD23,62.07916895604396,62.67807921245421,-0.0341907051282051,-0.5647195512820513,42.200308,-72.965451
LD.BLISVILL46,62.01518200549451,62.67807921245421,-0.0443303571428571,-0.6185668498168498,43.576178,-73.23302
LD.BLOMNGDL13.8,63.50459821428572,62.67807921245421,0.0600835622710622,0.7664354395604396,42.270277,-71.763752
LD.BLOOMFLD23,62.43258814102564,62.67807921245421,0.2184420787545787,-0.4639331501831502,41.8287,-72.728447
LD.BOGGY_BK46  ,44.901219586374694,49.98406173965937,-3.4274878345498783,-1.6553543187347932,44.577217,-68.454008
LD.BOKUM   23  ,61.08940590659341,62.67807921245421,-0.1727209249084249,-1.415952380952381,41.31832,-72.389936
LD.BOKUM   27.6,61.08940590659341,62.67807921245421,-0.1727209249084249,-1.415952380952381,41.31832,-72.389936
LD.BOLT_HL 34.5,63.974969093406585,62.67807921245421,0.145922619047619,1.150967261904762,43.115985,-70.768928
LD.BOWMN_ST34.5,61.098942307692305,62.67807921245421,-0.9045272435897436,-0.6746096611721613,44.2545,-69.803508
LD.BRANCH  12.5,62.64669299450549,62.67807921245421,0.1480334249084249,-0.1794196428571428,43.365673,-70.558619
LD.BRANCH  34.5,62.64669299450549,62.67807921245421,0.1480334249084249,-0.1794196428571428,43.365673,-70.558619
LD.BRANFORD23,61.491413690476186,62.67807921245421,-0.2576865842490842,-0.9289789377289378,41.292761,-72.793731
LD.BRANF_RR115,61.40927083333334,62.67807921245421,-0.2573946886446886,-1.0114136904761903,41.284039,-72.85377
LD.BRECKWOD13.8,62.17455242673993,62.67807921245421,-0.0118681318681318,-0.4916586538461538,42.115483,-72.523381
LD.BRENTWOD34.5,63.584745879120874,62.67807921245421,0.1455448717948718,0.7611217948717949,42.983679,-71.083817
LD.BRIDGE_S34.5,62.99343864468865,62.67807921245421,0.1451133241758241,0.170246108058608,42.7645,-71.453833
LD.BRIDGE_S4.16,62.99343864468865,62.67807921245421,0.1451133241758241,0.170246108058608,42.7645,-71.453833
LD.BRIGHTON13.8,63.79063759157509,62.67807921245421,0.1564903846153846,0.9560679945054944,42.3573,-71.1318
LD.BRISTLRI12.5,62.95382211538461,62.67807921245421,0.1118200549450549,0.1639228479853479,41.694576,-71.268442
LD.BRISTOL 13.8,60.83931891025642,62.67807921245421,-0.3158836996336996,-1.5228766025641025,41.671226,-72.940231
LD.BRISTOL 4.8,60.83931891025642,62.67807921245421,-0.3158836996336996,-1.5228766025641025,41.671226,-72.940231
LD.BROADWAY13.8,61.36550022893773,62.67807921245421,-0.2575297619047619,-1.0550492216117215,41.314368,-72.933953
LD.BROKENGD34.5,63.6599565018315,62.67807921245421,0.0620821886446886,0.9197951007326008,43.23975,-71.512153
LD.BROOKLYN23  ,61.445430402930405,62.67807921245421,-0.0744654304029304,-1.158183379120879,41.816754,-71.914692
LD.BROOK_ST23,63.39314445970696,62.67807921245421,0.0826705586080586,0.6323946886446887,41.9657,-70.7668
LD.BROWN_CR12.5,61.05217032967033,62.67807921245421,-0.9187614468864468,-0.7071474358974359,44.252946,-69.775017
LD.BUCKSPRT34.5,58.97907051282051,62.67807921245421,-2.2482360347985346,-1.4507726648351649,44.5752,-68.8063
LD.BUCK_PD 23  ,62.30617673992674,62.67807921245421,-0.0144047619047619,-0.3574977106227106,42.17557,-72.734481
LD.BUDDNGTN33.0,60.92932463369963,62.67807921245421,-0.0796119505494505,-1.669142628205128,41.373997,-72.045789
LD.BULLSBDG27.6,60.69348672161173,62.67807921245421,-0.2547287087912088,-1.729863782051282,41.659038,-73.491288
LD.BUNKR_HL13.8,60.046884157509155,62.67807921245421,-0.240488782051282,-2.3907062728937727,41.564016,-73.086446
LD.BURLNGTN13.8,63.95540407509158,62.67807921245421,0.1494310897435897,1.127893772893773,42.475381,-71.214285
LD.BURTT_RD13.2,63.53187156593407,62.67807921245421,0.1474130036630036,0.7063793498168498,42.602824,-71.168607
LD.CAMPVILL27.6,60.78580128205128,62.67807921245421,-0.2262236721611721,-1.666054258241758,41.737776,-73.086151
LD.CANAL_NU23,60.679614239926735,62.67807921245421,-0.2920730311355312,-1.7063919413919415,41.573472,-72.901919
LD.CANDLE  13.2,63.74497252747252,62.67807921245421,0.0823477564102564,0.9845455586080586,41.282491,-70.096499
LD.CANTN_BE115,63.45771176739926,62.67807921245421,0.0749324633699633,0.7047000915750916,42.157024,-71.1549
LD.CANTN_BE13.8,63.46385645604395,62.67807921245421,0.0749324633699633,0.7108447802197801,42.157024,-71.1549
LD.CANTON  23,61.956498397435894,62.67807921245421,-0.0390499084249084,-0.6825309065934066,41.8382,-72.926697
LD.CAPE    34.5,62.71421932234433,62.67807921245421,0.1530792124542124,-0.1169391025641025,43.642438,-70.255069
LD.CARD    23,61.33687499999999,62.67807921245421,-0.0574175824175824,-1.28378663003663,41.702382,-72.233552
LD.CARD    69,61.33687499999999,62.67807921245421,-0.0574175824175824,-1.28378663003663,41.702382,-72.233552
LD.CARML_HL23,60.54097298534798,62.67807921245421,-0.2548843864468864,-1.8822218406593407,41.600985,-73.2411
LD.CARVR_ST13.8,63.732780448717946,62.67807921245421,0.1566517857142857,0.8980494505494505,42.3502,-71.0663
LD.CEDARHTS13.22X LD,60.83219551282052,62.67807921245421,-0.2517502289377289,-1.5941334706959709,41.106496,-73.555841
LD.CEDARHTS13.23X LD,60.83219551282052,62.67807921245421,-0.2517502289377289,-1.5941334706959709,41.106496,-73.555841
LD.CENTECH 13.8,63.91226533882784,62.67807921245421,0.0639297161172161,1.1702564102564104,42.255191,-71.690729
LD.CHALLENG12.5,61.94468750000001,62.67807921245421,-0.2215521978021978,-0.5118395146520147,44.068686,-70.186136
LD.CHALLENG34.5,61.94468750000001,62.67807921245421,-0.2215521978021978,-0.5118395146520147,44.068686,-70.186136
LD.CHARLOTT12.5,63.10509500915751,62.67807921245421,0.0670421245421245,0.3599736721611721,44.312436,-73.261424
LD.CHASE_HL12.5,62.45890453296703,62.67807921245421,0.0052781593406593,-0.2244528388278388,41.412559,-71.769332
LD.CHATHAM 14.4,63.73507554945055,62.67807921245421,0.1570821886446886,0.8999141483516483,42.3595,-71.0549
LD.CHELSEA 13.8,64.01287431318681,62.67807921245421,0.1492731227106227,1.185521978021978,42.3949,-71.0248
LD.CHELSEVT46,63.6164983974359,62.67807921245421,-0.0399461996336996,0.9783653846153846,43.960862,-72.47096
LD.CHESTER 34.5,62.95977449633699,62.67807921245421,0.1454120879120879,0.1362831959706959,42.936467,-71.237208
LD.CHICOPEE13.8,62.27637934981684,62.67807921245421,-0.0127483974358974,-0.3889514652014652,42.167113,-72.593426
LD.CHIPINHL13.8,60.87237751831501,62.67807921245421,-0.28965086996337,-1.5160508241758242,41.682079,-72.986721
LD.CHRTLYPD23,63.04425595238095,62.67807921245421,0.0940201465201465,0.2721565934065934,41.944876,-71.237133
LD.CHSTERME46,55.91926053113553,62.67807921245421,-4.387728937728937,-2.3710897435897436,45.39729,-68.525677
LD.CHSTNTHL34.5,62.29050022893774,62.67807921245421,-0.0445432692307692,-0.3430357142857143,42.797912,-72.482906
LD.CHURCHIL13.8,62.999967948717945,62.67807921245421,0.0779120879120879,0.2439766483516483,42.2223,-71.0198
LD.CLARKSON12.5T1 LD,62.40151098901099,62.67807921245421,0.0549393315018315,-0.3315075549450549,41.843342,-71.420848
LD.CLARKSON12.5T2 LD,62.58661744505494,62.67807921245421,0.4372378663003663,-0.5286996336996337,41.843342,-71.420848
LD.CLINTON 13.8,62.147470238095245,62.67807921245421,-0.0114491758241758,-0.5191597985347985,42.10463,-72.601004
LD.COLBURN 13.8,63.77871909340659,62.67807921245421,0.1566552197802198,0.9439846611721612,42.331587,-71.110886
LD.COLD_RV 46,62.726956272893766,62.67807921245421,-0.0441849816849816,0.0930620421245421,43.565193,-72.94568
LD.COLONY  13.8,60.69003891941392,62.67807921245421,-0.3860805860805861,-1.601959706959707,41.498922,-72.811861
LD.COMERFRD34.5,62.49011446886447,62.67807921245421,0.0607886904761904,-0.2487534340659341,44.31958,-71.993365
LD.COMPO   13.8,60.68250801282051,62.67807921245421,-0.2530059523809524,-1.742565247252747,41.121315,-73.360748
LD.CONGRESS13.8,60.39735004578755,62.67807921245421,-0.2585748626373626,-2.022154304029304,41.182419,-73.186785
LD.COOPERML12.5,60.64225389194139,62.67807921245421,-1.0359214743589742,-0.999903846153846,44.297012,-69.556551
LD.COSCOB  13.2,60.9999896978022,62.67807921245421,-0.2517513736263736,-1.426338141025641,41.029047,-73.599153
LD.COSCOB  26.4,60.9999896978022,62.67807921245421,-0.2517513736263736,-1.426338141025641,41.029047,-73.599153
LD.COSCOB  27.6,60.9999896978022,62.67807921245421,-0.2517513736263736,-1.426338141025641,41.029047,-73.599153
LD.COUNTYRD34.5,60.01782852564103,62.67807921245421,-1.3915350274725276,-1.2687156593406594,44.5734,-69.6771
LD.CROSS_RD13.2109A_LD,63.26011217948717,62.67807921245421,0.1030643315018315,0.4789686355311355,41.6493,-71.0082
LD.CROSS_RD13.2111_LD,63.26011217948717,62.67807921245421,0.1030643315018315,0.4789686355311355,41.6493,-71.0082
LD.CROWLEYS12.5,61.84368933150183,62.67807921245421,-0.2268944597069596,-0.6074954212454212,44.059499,-70.155111
LD.CROWLEYS34.5,61.84368933150183,62.67807921245421,-0.2268944597069596,-0.6074954212454212,44.059499,-70.155111
LD.CRYSTLSP13.2,63.59406593406594,62.67807921245421,0.0920638736263736,0.823922847985348,41.673966,-70.832248
LD.CUMBRLND13.8,61.37013507326007,62.67807921245421,-0.0671428571428571,-1.240801282051282,42.571615,-72.61729
LD.DARIEN  13.2,60.82717719780219,62.67807921245421,-0.2519597069597069,-1.5989423076923075,41.075818,-73.480485
LD.DAVISVIL34.5T1 LD,62.44113896520147,62.67807921245421,-0.0088633241758241,-0.228076923076923,41.59247,-71.43523
LD.DAVISVIL34.5T2 LD,62.39999542124542,62.67807921245421,-0.0135920329670329,-0.2644917582417582,41.59247,-71.43523
LD.DEBLOIS 34.5,56.74294986263736,62.67807921245421,-3.642158882783883,-2.292970467032967,44.700424,-67.957027
LD.DEER_ISL115,63.69617788461539,62.67807921245421,0.1570821886446886,0.8610164835164835,42.3515,-70.9578
LD.DEPOT   13.8,63.208859890109885,62.67807921245421,-0.092451923076923,0.6232326007326008,42.129962,-71.517338
LD.DETROIT 34.5,59.745992445054945,62.67807921245421,-1.393102106227106,-1.5389846611721612,44.792859,-69.362162
LD.DEVON_RR115,60.26212797619047,62.67807921245421,-0.2834809981684981,-2.132470238095238,41.2074,-73.1068
LD.DEWAR_ST13.8110A LD,63.69617788461539,62.67807921245421,0.1570821886446886,0.8610164835164835,42.3086,-71.0555
LD.DEWAR_ST13.8110B LD,63.69617788461539,62.67807921245421,0.1570821886446886,0.8610164835164835,42.3086,-71.0555
LD.DEXTER  13.8,61.82184065934066,62.67807921245421,0.0748866758241758,-0.931125228937729,41.922387,-72.625379
LD.DEXTR_RI13.8,63.63024954212454,62.67807921245421,0.1096268315018315,0.8425434981684982,41.601817,-71.255393
LD.DIGHTON 13.8,63.331467490842485,62.67807921245421,0.1322206959706959,0.5211675824175824,41.816237,-71.136094
LD.DOOLEY  13.2,62.01519116300366,62.67807921245421,0.2303216575091575,-0.8932097069597069,41.511341,-72.672415
LD.DOREEN  23,61.14552312271063,62.67807921245421,-0.075352564102564,-1.4572035256410256,42.443886,-73.206102
LD.DOVER   34.5,63.69858516483516,62.67807921245421,0.1456524725274725,0.8748534798534798,43.198333,-70.864
LD.DOVER_BE13.8,63.681701007326005,62.67807921245421,0.1518727106227106,0.8517490842490842,42.2034,-71.254
LD.DRAGONCT115,61.49131524725275,62.67807921245421,-0.5520638736263737,-0.6347000915750916,44.083857,-69.158383
LD.DRUMROCK115,27.735,27.49625,0.4083333333333334,-0.1695833333333333,41.696685,-71.472958
LD.DRUMROCK115 ,45.823912426035506,46.257784615384615,0.020378698224852,-0.4542508875739645,41.696685,-71.472958
LD.DUDLEY  13.8,61.02430173992675,62.67807921245421,-0.0766609432234432,-1.5771165293040297,41.536111,-72.102222
LD.DUDLEY  34.5,61.02430173992675,62.67807921245421,-0.0766609432234432,-1.5771165293040297,41.536111,-72.102222
LD.DUNNL_PK13.8,63.37154075091576,62.67807921245421,0.1025228937728937,0.5909386446886447,41.86554,-71.36562
LD.DUPONT  13.8,63.47886675824176,62.67807921245421,0.085367445054945,0.7154201007326008,42.075411,-71.004349
LD.DUXBURY 23,63.450288461538456,62.67807921245421,0.082709478021978,0.6894997710622711,42.054,-70.7223
LD.EASTON  13.8,63.323569139194134,62.67807921245421,0.0913701923076923,0.5541197344322344,42.030259,-71.115301
LD.EAST_AVE13.8,63.141800595238095,62.67807921245421,0.0680940934065934,0.3956272893772893,44.480794,-73.18841
LD.EAST_AVE34.5,63.141800595238095,62.67807921245421,0.0680940934065934,0.3956272893772893,44.480794,-73.18841
LD.EDDY    34.5,63.6984168956044,62.67807921245421,0.1442124542124542,0.8761252289377289,43.00317,-71.473301
LD.ELECTRIC13.8,63.816146978021976,62.67807921245421,0.1564892399267399,0.9815785256410255,42.3571,-71.1546
LD.ELLIS_AV14.4,63.686978021978014,62.67807921245421,0.0747321428571428,0.9341666666666668,42.2063,-71.1857
LD.ELLSWRTH34.5,58.56212683150183,62.67807921245421,-2.535040064102564,-1.580912316849817,44.543655,-68.430748
LD.ELM     23,62.27630494505495,62.67807921245421,-0.015212912087912,-0.3865613553113553,42.127483,-72.744378
LD.ELM_ST  12.5,62.79646176739927,62.67807921245421,0.1531032509157509,-0.0347206959706959,43.786536,-70.199093
LD.ELM_ST  34.5,62.79646176739927,62.67807921245421,0.1531032509157509,-0.0347206959706959,43.786536,-70.199093
LD.ELM_WEST13.8,61.09227678571428,62.67807921245421,-0.2635050366300366,-1.3222973901098902,41.275855,-72.954382
LD.EMBDEN  12.5,57.66454097985348,62.67807921245421,-2.3074828296703296,-2.706055402930403,44.9583,-69.8853
LD.EMRLD_ST12.5,62.83239010989011,62.67807921245421,-0.0423088369963369,0.1966197344322344,42.929667,-72.286
LD.ENFIELD 23,61.82184065934066,62.67807921245421,0.0748866758241758,-0.931125228937729,41.936513,-72.614125
LD.ENFIELD 27.6,61.82184065934066,62.67807921245421,0.0748866758241758,-0.931125228937729,41.936513,-72.614125
LD.ESSEX   34.5,63.11230425824176,62.67807921245421,0.0680998168498168,0.3661252289377289,44.481282,-73.11332
LD.EVERETT 13.8,63.95138965201465,62.67807921245421,0.1492113095238095,1.12409913003663,42.414697,-71.071919
LD.EVERETT 23,63.95138965201465,62.67807921245421,0.1492113095238095,1.12409913003663,42.414697,-71.071919
LD.E_BEVRLY23  T1 LD,63.32165865384616,62.67807921245421,0.1480826465201465,0.4954967948717949,42.56431,-70.849784
LD.E_BEVRLY23  T2 LD,63.31767284798534,62.67807921245421,0.1480826465201465,0.491510989010989,42.56431,-70.849784
LD.E_BEVRLY34.5T10 LD,63.31767284798534,62.67807921245421,0.1480826465201465,0.491510989010989,42.56431,-70.849784
LD.E_BEVRLY34.5T20 LD,63.32165865384616,62.67807921245421,0.1480826465201465,0.4954967948717949,42.56431,-70.849784
LD.E_BRGWTR13.8,63.64139652014652,62.67807921245421,0.0882222985347985,0.8750950091575092,42.023805,-70.96649
LD.E_CAMBRG13.8,63.648984661172165,62.67807921245421,0.1553479853479853,0.8155574633699634,42.36294,-71.080518
LD.E_DRACUT13.2,63.39201465201465,62.67807921245421,0.1466048534798534,0.5673305860805861,42.66942,-71.252338
LD.E_FAIRFX34.5,62.306649496336995,62.67807921245421,0.0684832875457875,-0.4399130036630037,44.636573,-72.93121
LD.E_HARTFR23,62.180081272893766,62.67807921245421,0.1966632326007326,-0.6946611721611722,41.769375,-72.61676
LD.E_HOLBRK23  T1 LD,63.1565293040293,62.67807921245421,0.077933836996337,0.4005162545787545,42.164692,-70.97948
LD.E_HOLBRK23  T2 LD,63.15614697802197,62.67807921245421,0.0779120879120879,0.4001556776556776,42.164692,-70.97948
LD.E_MAIN_S13.8,64.18480082417582,62.67807921245421,0.0644104853479853,1.4423111263736264,42.288699,-71.594617
LD.E_MERDEN13.8,60.73762248168498,62.67807921245421,-0.3335451007326007,-1.60691163003663,41.510167,-72.752229
LD.E_METHUE13.2,63.04371565934066,62.67807921245421,0.1467273351648351,0.2189091117216117,42.744582,-71.167116
LD.E_NBRITN13.8,62.83653502747252,62.67807921245421,0.5143967490842491,-0.3559409340659341,41.670152,-72.753868
LD.E_SHORE 13.8,61.332513736263735,62.67807921245421,-0.2525389194139193,-1.093026556776557,41.288289,-72.904739
LD.E_SPRFLD13.8,62.25967605311356,62.67807921245421,-0.0133825549450549,-0.4050206043956044,42.143106,-72.551285
LD.E_TEWKS 13.2,63.52455128205128,62.67807921245421,0.1472298534798534,0.6992422161172162,42.615492,-71.189802
LD.E_WEYMTH23  T1 LD,62.81447916666667,62.67807921245421,0.0779120879120879,0.0584878663003663,42.220118,-70.920455
LD.E_WEYMTH23  T2 LD,62.81679143772894,62.67807921245421,0.0779120879120879,0.0608001373626373,42.220118,-70.920455
LD.E_WINCHD13.8,63.06937271062272,62.67807921245421,-0.0426694139194139,0.4339629120879121,42.672653,-72.021604
LD.FALMOUTH25,63.811958562271066,62.67807921245421,0.0825984432234432,1.0512809065934066,41.5634,-70.6121
LD.FALSVL  69,63.13654075091574,62.67807921245421,-0.1908413461538461,0.6493028846153847,41.956424,-73.369054
LD.FARNPIKE12.5,62.14730769230769,62.67807921245421,-0.0009340659340659,-0.5298374542124542,41.901223,-71.53092
LD.FARNUM  23,62.435746336996345,62.67807921245421,0.0592582417582417,-0.3015911172161172,41.98011,-71.521372
LD.FIELD_ST13.8517-532,62.72042582417583,62.67807921245421,0.0779120879120879,-0.0355654761904761,42.254165,-70.992156
LD.FIELD_ST13.8517-533,62.72042582417583,62.67807921245421,0.0779120879120879,-0.0355654761904761,42.254165,-70.992156
LD.FIELD_ST23  517-532,62.72042582417583,62.67807921245421,0.0779120879120879,-0.0355654761904761,42.254165,-70.992156
LD.FIELD_ST23  517-533,62.72042582417583,62.67807921245421,0.0779120879120879,-0.0355654761904761,42.254165,-70.992156
LD.FISHR_RD13.2,63.26011217948717,62.67807921245421,0.1030643315018315,0.4789686355311355,41.592213,-71.031635
LD.FITCH   27.6,60.72828296703297,62.67807921245421,-0.2527529761904762,-1.697043269230769,41.1049,-73.4036
LD.FITCH_RD69,63.35902243589744,62.67807921245421,0.0574507783882783,0.623492445054945,42.419861,-71.700768
LD.FLAGG_PD69,62.95236607142857,62.67807921245421,-0.0428743131868131,0.3171611721611721,42.550614,-71.843784
LD.FLANDERS23,60.6559809981685,62.67807921245421,-0.0781913919413919,-1.9439068223443223,41.361663,-72.210318
LD.FLAX_HL 13.8,60.75438072344323,62.67807921245421,-0.2516826923076923,-1.6720157967032967,41.093612,-73.442168
LD.FLAX_HL 27.6,60.75438072344323,62.67807921245421,-0.2516826923076923,-1.6720157967032967,41.093612,-73.442168
LD.FLORENCE13.8,62.437044413919416,62.67807921245421,-0.0134329212454212,-0.2276018772893772,42.330179,-72.683101
LD.FLORNCE 46,62.67014079670329,62.67807921245421,0.0661080586080586,-0.0740464743589743,43.708682,-73.06736
LD.FORESTVL13.8,60.8098466117216,62.67807921245421,-0.3246417124542124,-1.5435908882783882,41.663605,-72.895721
LD.FORT_HIL34.5,60.876312957875456,62.67807921245421,-0.0409157509157509,-1.7608505036630038,41.470982,-72.112177
LD.FRAMNGHM13.8,63.63238324175824,62.67807921245421,0.1526121794871794,0.8016918498168498,42.268282,-71.398317
LD.FREIGHT 13.8,60.16227564102565,62.67807921245421,-0.2240922619047619,-2.2917113095238095,41.554855,-73.053229
LD.FRENCHKG13.8,61.53422275641025,62.67807921245421,-0.0573740842490842,-1.0864823717948715,42.611222,-72.468266
LD.FRIVR_ME12.5,62.7215521978022,62.67807921245421,0.1531043956043956,-0.1096314102564102,43.654347,-70.292566
LD.FRMNGTON23,62.8344413919414,62.67807921245421,0.3449965659340659,-0.1886343864468864,41.741559,-72.793349
LD.FRNCONIA13.8,62.265172847985355,62.67807921245421,-0.0128182234432234,-0.400088141025641,42.055279,-72.535929
LD.FRNKLNDR13.2,61.14911057692308,62.67807921245421,-0.1986183608058608,-1.330350274725275,41.799557,-73.116562
LD.FRNKLNSQ11.5,62.58661744505494,62.67807921245421,0.4372378663003663,-0.5286996336996337,41.816349,-71.405645
LD.FRNKLNSQ12.5,62.58661744505494,62.67807921245421,0.4372378663003663,-0.5286996336996337,41.816349,-71.405645
LD.FRYBROOK23  ,61.22367216117216,62.67807921245421,-0.0748420329670329,-1.3795650183150183,41.670702,-71.921524
LD.GALE_FRY13.8,60.74051053113553,62.67807921245421,-0.0781192765567765,-1.8594494047619048,41.433775,-72.07937
LD.GARVINS 34.5,63.55671130952381,62.67807921245421,0.1440670787545787,0.7345650183150183,43.1625,-71.508
LD.GEORGIA 34.5,62.306649496336995,62.67807921245421,0.0684832875457875,-0.4399130036630037,44.7142,-73.1543
LD.GE_CO_14115 1X LD,61.14557463369963,62.67807921245421,-0.075352564102564,-1.4571520146520147,42.455998,-73.218169
LD.GE_CO_14115 2X LD,61.14557463369963,62.67807921245421,-0.075352564102564,-1.4571520146520147,42.455998,-73.218169
LD.GE_RIVER13.8,63.97784111721612,62.67807921245421,0.1491014194139194,1.1506604853479854,42.447204,-70.966377
LD.GLENBROK13.2,60.83219551282052,62.67807921245421,-0.2517502289377289,-1.5941334706959709,41.061443,-73.520494
LD.GOLDN_RK13.2,63.18705013736263,62.67807921245421,0.1465304487179487,0.3624404761904762,42.742592,-71.203519
LD.GOLDN_RK23,63.18705013736263,62.67807921245421,0.1465304487179487,0.3624404761904762,42.742592,-71.203519
LD.GOOSEFAR12,62.60486836080586,62.67807921245421,0.1494528388278388,-0.2226636904761904,43.5168,-70.4438
LD.GRAFTON 69  ,64.11341575091576,62.67807921245421,0.054757326007326,1.3805792124542124,42.191645,-71.742922
LD.GRAHAM  46,58.28338484432235,62.67807921245421,-2.344313186813187,-2.0503811813186816,44.824186,-68.705434
LD.GREATBAY34.5,64.28164491758241,62.67807921245421,0.1456959706959706,1.4578697344322344,43.009167,-70.886833
LD.GREENDAL13.8,63.072212683150184,62.67807921245421,0.0603663003663003,0.3337671703296703,42.318134,-71.794372
LD.GREENWCH13.2,60.9999896978022,62.67807921245421,-0.2517513736263736,-1.426338141025641,41.020964,-73.632979
LD.GREEN_HL23,61.60013965201465,62.67807921245421,-0.2153514194139194,-0.862588141025641,41.319667,-72.596069
LD.GUILFORD34.5,59.745992445054945,62.67807921245421,-1.393102106227106,-1.5389846611721612,45.160448,-69.389024
LD.GULFISLD34.5,61.685267857142854,62.67807921245421,-0.235264423076923,-0.7575469322344323,44.151201,-70.208445
LD.GUNN    23,62.42746222527473,62.67807921245421,-0.0137374084249084,-0.2368795787545787,42.236077,-72.685882
LD.HADDAM  23,60.57731456043957,62.67807921245421,-0.1509569597069597,-1.9498076923076924,41.460913,-72.476719
LD.HALVARSN345 SMDINTLD,61.43148923992674,62.67807921245421,-0.2349530677655678,-1.0116369047619047,41.2872,-72.902
LD.HANOVER 13.81355 LD,60.57508699633699,62.67807921245421,-0.423529075091575,-1.679463141025641,41.526533,-72.825468
LD.HANOVER 13.81690 LD,60.617435897435904,62.67807921245421,-0.3352117673992674,-1.7254315476190476,41.526533,-72.825468
LD.HANOVER 23  1355 LD,60.57508699633699,62.67807921245421,-0.423529075091575,-1.679463141025641,41.526533,-72.825468
LD.HANOVER 23  1690 LD,60.617435897435904,62.67807921245421,-0.3352117673992674,-1.7254315476190476,41.526533,-72.825468
LD.HARRIMAN6.9,60.90226190476191,62.67807921245421,-0.0751751373626373,-1.7006421703296704,42.75829,-72.930003
LD.HARRINGT34.5,58.0687168040293,62.67807921245421,-2.546304945054945,-2.063057463369963,44.6222,-67.7979
LD.HARRIS  13.2,57.3354326923077,62.67807921245421,-2.50441163003663,-2.83823489010989,45.459145,-69.864761
LD.HARRISON13.8,63.59035027472528,62.67807921245421,0.0850847069597069,0.8271863553113553,42.119134,-71.051305
LD.HARTFDVT46,64.26334363553113,62.67807921245421,-0.0409913003663003,1.6262557234432231,43.683371,-72.31171
LD.HARTLAND12.5,59.44192078754579,62.67807921245421,-1.4726121794871794,-1.7635462454212454,44.835852,-69.476559
LD.HARTWELL13.8,63.96576808608058,62.67807921245421,0.1496840659340659,1.1380048076923075,42.4704,-71.2575
LD.HARWICH 23,63.74497252747252,62.67807921245421,0.0823477564102564,0.9845455586080586,41.688313,-70.101002
LD.HATCHVIL23,63.86849931318681,62.67807921245421,0.0825492216117216,1.1078708791208791,41.618362,-70.554253
LD.HATHAWAY13.8,62.86007326007326,62.67807921245421,0.1188221153846153,0.0631719322344322,41.71582,-71.157646
LD.HATHAWAY23,62.86007326007326,62.67807921245421,0.1188221153846153,0.0631719322344322,41.71582,-71.157646
LD.HAWKINS 13.8110A LD,63.88296703296703,62.67807921245421,0.1524885531135531,1.0523992673992677,42.3621,-71.0612
LD.HAWKINS 13.8110B LD,63.884255952380954,62.67807921245421,0.1524885531135531,1.0536881868131869,42.3621,-71.0612
LD.HAWTHORN13.8,60.54748397435897,62.67807921245421,-0.2689617673992674,-1.8616334706959707,41.21369,-73.25171
LD.HIGHGATE46,60.48875801282052,62.67807921245421,-0.6838553113553113,-1.5054658882783882,44.940703,-73.05126
LD.HIGHLAND34.5,61.41466002747252,62.67807921245421,-0.6135542582417582,-0.6498649267399268,44.136436,-69.204287
LD.HIGH_ST 14.4510 LD,63.70412202380952,62.67807921245421,0.156753663003663,0.8692891483516483,42.3537,-71.0556
LD.HIGH_ST 14.4511 LD,63.70732257326008,62.67807921245421,0.1567651098901099,0.8724782509157509,42.3537,-71.0556
LD.HILND_PK13.8,62.88991185897436,62.67807921245421,0.0734500915750915,0.1383825549450549,41.99363,-71.472661
LD.HNDRSNVL13.8,63.90125572344322,62.67807921245421,0.1493005952380952,1.0738759157509157,42.3996,-71.0657
LD.HNKLY_PD12.5,62.68622138278388,62.67807921245421,0.1529658882783882,-0.1448237179487179,43.62777,-70.255648
LD.HOBRT_ST13.81X LD,62.81679143772894,62.67807921245421,0.0779120879120879,0.0608001373626373,42.221466,-70.905923
LD.HOBRT_ST13.82X LD,62.81447916666667,62.67807921245421,0.0779120879120879,0.0584878663003663,42.221466,-70.905923
LD.HOLLISTN13.8,63.70362866300366,62.67807921245421,0.1525755494505494,0.8729739010989012,42.2066,-71.4009
LD.HOLYOKE 13.8,62.33845924908425,62.67807921245421,-0.0132772435897435,-0.3263427197802198,42.281183,-72.604673
LD.HOPEWELL23,61.88592147435898,62.67807921245421,0.1109065934065934,-0.9030643315018316,41.680895,-72.555159
LD.HOPKINTN13.8,63.511728479853474,62.67807921245421,0.0695947802197802,0.7640544871794871,42.19052,-71.540324
LD.HOTEL_RD12,62.07515682234432,62.67807921245421,-0.2078777472527472,-0.3950446428571428,44.068334,-70.26717
LD.HOTEL_RD34.5,62.07515682234432,62.67807921245421,-0.2078777472527472,-0.3950446428571428,44.068334,-70.26717
LD.HUDSN_HD13.8,64.12712454212455,62.67807921245421,0.0649942765567765,1.384051053113553,42.387245,-71.556353
LD.HUDSON  34.5,62.99343864468865,62.67807921245421,0.1451133241758241,0.170246108058608,42.774333,-71.429
LD.HUSE_RD 34.5,62.81209478021977,62.67807921245421,0.1452724358974358,-0.0112568681318681,42.953167,-71.430833
LD.HYANIS_J24.0,63.74497252747252,62.67807921245421,0.0823477564102564,0.9845455586080586,41.685252,-70.29837
LD.HYDE_PRK13.8110A,63.76619734432234,62.67807921245421,0.1606501831501831,0.9274679487179488,42.273645,-71.120502
LD.HYDE_PRK13.8110B,63.76722184065934,62.67807921245421,0.1603331043956044,0.9288095238095238,42.273645,-71.120502
LD.IBM     115 K21 LD,63.102817078754576,62.67807921245421,0.0681055402930402,0.356632326007326,44.479406,-73.095458
LD.IBM     115 K24 LD,63.13380151098901,62.67807921245421,0.0681456043956044,0.3875766941391941,44.479406,-73.095458
LD.INDIAN  13.8,60.15509043040293,62.67807921245421,-0.3007806776556776,-2.2222081043956043,41.325705,-73.100079
LD.INDSTLPK13.2,63.388859890109885,62.67807921245421,0.0999233058608058,0.6108573717948718,41.719416,-70.949246
LD.INGLESID13.8,62.40774725274725,62.67807921245421,-0.0135576923076923,-0.2567742673992674,42.170759,-72.646778
LD.INTERVAL34.5,63.77574748168499,62.67807921245421,-0.0857154304029304,1.1833836996336995,44.092679,-71.152321
LD.IPSWICH 23,63.2565418956044,62.67807921245421,0.1476499542124542,0.4308127289377289,42.697596,-70.869305
LD.IRASBURG46,61.10021978021978,62.67807921245421,-0.6824656593406593,-0.8953937728937729,44.844693,-72.28423
LD.JACKMAN 34.5,63.89608516483515,62.67807921245421,0.1408070054945054,1.077198946886447,43.112167,-71.925667
LD.JAY     13.8,60.99980082417583,62.67807921245421,0.0836675824175824,-1.7619459706959708,44.505581,-70.241671
LD.JAY_VT  46,60.86998168498169,62.67807921245421,-0.6827815934065934,-1.125315934065934,44.978444,-72.482611
LD.JEPSON  13.8,63.76038003663004,62.67807921245421,0.1096268315018315,0.9726739926739928,41.546301,-71.278503
LD.JEPSON  23  ,63.76038003663004,62.67807921245421,0.1096268315018315,0.9726739926739928,41.546301,-71.278503
LD.JEPSON  69  ,63.76038003663004,62.67807921245421,0.1096268315018315,0.9726739926739928,41.546301,-71.278503
LD.JOHNSTON12.5,61.78690132783883,62.67807921245421,-0.1696233974358974,-0.7215544871794872,41.814454,-71.474959
LD.JOHNSTON23,61.778128434065934,62.67807921245421,-0.1781353021978022,-0.7218154761904761,41.814454,-71.474959
LD.JUNE_ST 13.8,60.73737065018315,62.67807921245421,-0.3268864468864468,-1.6138221153846155,41.338303,-72.982367
LD.KEENE_RD44  ,55.91926053113553,62.67807921245421,-4.387728937728937,-2.3710897435897436,45.397458,-68.529335
LD.KENDALL 13.8,63.648984661172165,62.67807921245421,0.1553479853479853,0.8155574633699634,42.36294,-71.080518
LD.KENTCNTY12.5,62.28793612637363,62.67807921245421,-0.0138301282051282,-0.3763129578754579,41.683257,-71.479465
LD.KENTCNTY34.5,62.28278846153845,62.67807921245421,-0.0213839285714285,-0.3739068223443223,41.683257,-71.479465
LD.KENYON  12.5,62.67236149267399,62.67807921245421,0.001702152014652,-0.0074198717948717,41.438468,-71.632259
LD.KILVERT 12.5,62.25953525641026,62.67807921245421,-0.0412065018315018,-0.3773374542124542,41.729505,-71.449789
LD.KIMBL_RD34.5,62.218244047619045,62.67807921245421,-0.0033768315018315,-0.4564583333333333,44.151944,-70.633889
LD.KINGSTON23,63.450288461538456,62.67807921245421,0.082709478021978,0.6894997710622711,42.0054,-70.7564
LD.KING_ST 23,62.95509844322344,62.67807921245421,0.1468521062271062,0.1301671245421245,42.736454,-71.012063
LD.KNGSTNAB13.8110A LD,63.70265682234432,62.67807921245421,0.1566987179487179,0.8678788919413919,42.3529,-71.0603
LD.KNGSTNAB13.8110B LD,63.705388049450555,62.67807921245421,0.1567090201465201,0.8705998168498169,42.3529,-71.0603
LD.KNGSTNPS34.5,63.501584249084246,62.67807921245421,0.1454933608058608,0.6780116758241758,42.8936,-71.0836
LD.KNGSTNUT34.5,63.501584249084246,62.67807921245421,0.1454933608058608,0.6780116758241758,42.894,-71.0844
LD.K_STREET13.8,63.69617788461539,62.67807921245421,0.1570821886446886,0.8610164835164835,42.3387,-71.0397
LD.LACONIA 34.5,64.0821668956044,62.67807921245421,0.0610405219780219,1.3430471611721613,43.525153,-71.451983
LD.LAKEWOOD34.5,59.022165750915754,62.67807921245421,-1.6112328296703295,-2.044680631868132,44.804816,-69.739139
LD.LAUREL_C13.8,62.85308264652015,62.67807921245421,0.0585874542124542,0.1164159798534798,42.531054,-71.670175
LD.LAWRENCE34.5,62.739933608058614,62.67807921245421,0.1456192765567765,-0.0837648809523809,42.790874,-71.377718
LD.LEEDS_ME34.5,61.293605769230766,62.67807921245421,-0.0456490384615384,-1.338824404761905,44.336103,-70.167289
LD.LEWSTN_L12.5,61.898727106227106,62.67807921245421,-0.2249645146520146,-0.5543875915750915,44.0868,-70.2118
LD.LEXINGTN13.8,63.86167124542125,62.67807921245421,0.1498649267399267,1.033727106227106,42.445149,-71.266294
LD.LIMEKILN34.5,63.14029304029304,62.67807921245421,0.0680906593406593,0.3941231684981685,44.4874,-73.1707
LD.LINCOLN 12.5,62.25953525641026,62.67807921245421,-0.0412065018315018,-0.3773374542124542,41.750416,-71.439098
LD.LINCOLNV34.5,60.91082646520146,62.67807921245421,-0.9843097527472529,-0.7829429945054945,44.306981,-69.114129
LD.LITCHFLD13.8,62.82753205128205,62.67807921245421,-0.0431375915750915,0.1925904304029304,42.508564,-71.745492
LD.LITTLRST13.2,62.382163461538454,62.67807921245421,-0.0184947344322344,-0.2774210164835165,42.163984,-72.192814
LD.LITTLTN 25,62.94447573260073,62.67807921245421,0.1447504578754578,0.1216460622710622,42.57086,-71.524129
LD.LONGHILL34.5,62.99343864468865,62.67807921245421,0.1451133241758241,0.170246108058608,42.732333,-71.4525
LD.LOSTNATN34.5,61.24971840659341,62.67807921245421,-0.1956227106227106,-1.2327380952380953,44.594173,-71.494281
LD.LOUDEN  34.5,62.60486836080586,62.67807921245421,0.1494528388278388,-0.2226636904761904,43.529042,-70.503201
LD.LOVELL  34.5,63.141755952380954,62.67807921245421,-0.0031158424908424,0.4667925824175824,44.121765,-70.888735
LD.LOWRDFLD69,61.01785027472527,62.67807921245421,-0.0409489468864468,-1.6192799908424909,42.479239,-72.596342
LD.LUDDN_LN34.5,60.358116987179486,62.67807921245421,-0.5110931776556776,-1.8088690476190477,44.496498,-70.336998
LD.LUDLOW  13.8,62.0677793040293,62.67807921245421,-0.0137374084249084,-0.5965625,42.195587,-72.447711
LD.LVERMORE12.5,61.1436423992674,62.67807921245421,0.0957245879120879,-1.6301614010989012,44.478414,-70.171825
LD.LYNDONVL34.5,62.286149267399274,62.67807921245421,0.0713369963369963,-0.4632669413919413,44.53583,-72.00528
LD.LYNN    13.8,63.9508424908425,62.67807921245421,0.1490499084249084,1.12371336996337,42.455049,-70.951692
LD.LYNN    23,63.950436126373624,62.67807921245421,0.1490499084249084,1.1233070054945054,42.455049,-70.951692
LD.MADBURY 34.5,63.62605082417583,62.67807921245421,0.1455574633699633,0.8024141483516484,43.1605,-70.931
LD.MADISON 115 ,57.63782394688645,62.67807921245421,-2.6864022435897437,-2.3538530219780216,44.781105,-69.913812
LD.MADISON 34.5,57.63782394688645,62.67807921245421,-2.6864022435897437,-2.3538530219780216,44.781105,-69.913812
LD.MAMOTHRD34.5,62.698160485347984,62.67807921245421,0.1452827380952381,-0.1252014652014652,42.878574,-71.383318
LD.MANCHSTR23,61.83949748168498,62.67807921245421,0.1282955586080586,-0.9668772893772892,41.771186,-72.558048
LD.MANOMET 23,63.48032852564103,62.67807921245421,0.0834695512820512,0.7187797619047619,41.91902,-70.577341
LD.MANSFLD 13.8,63.019753891941384,62.67807921245421,0.0906078296703296,0.2510668498168498,42.028428,-71.222198
LD.MAPLWOOD13.8,63.84599244505494,62.67807921245421,0.1490865384615384,1.018826694139194,42.4316,-71.0386
LD.MARSHFEL23,63.450288461538456,62.67807921245421,0.082709478021978,0.6894997710622711,42.080428,-70.695077
LD.MASHPEE 23,63.84628548534799,62.67807921245421,0.0824553571428571,1.0857509157509158,41.626446,-70.472609
LD.MASON   34.5,61.880627289377294,62.67807921245421,-0.066411401098901,-0.7310405219780219,43.9912,-69.6713
LD.MAYNARD 13.8110A LD,63.91192536630036,62.67807921245421,0.150989010989011,1.082857142857143,42.436527,-71.430627
LD.MAYNARD 13.8110B LD,63.91192536630036,62.67807921245421,0.150989010989011,1.082857142857143,42.436527,-71.430627
LD.MBTA    14.4,63.69617788461539,62.67807921245421,0.1570821886446886,0.8610164835164835,42.338887,-71.033655
LD.MEABROOK13.2,63.09829555860806,62.67807921245421,0.1452438186813186,0.2749725274725274,42.612205,-71.326171
LD.MEABROOK23  ,62.9157200091575,62.67807921245421,0.1446428571428571,0.0929979395604395,42.612205,-71.326171
LD.MEADOWST69,63.43275641025642,62.67807921245421,0.0239114010989011,0.7307657967032968,42.2386,-72.0101
LD.MEADW_RD34.5,61.17309523809524,62.67807921245421,-0.8075034340659341,-0.6974805402930403,44.175534,-69.121304
LD.MEDWAY  13.8,63.552235576923074,62.67807921245421,0.0716655219780219,0.8024908424908426,42.136506,-71.447557
LD.MELROSE 13.8,63.5281353021978,62.67807921245421,0.1487980769230769,0.7012580128205128,42.469644,-71.050499
LD.MELROSE 23,63.52651671245422,62.67807921245421,0.1487992216117216,0.6996382783882784,42.469644,-71.050499
LD.MEMORIAL13.8,62.2757097069597,62.67807921245421,-0.0131169871794871,-0.3892525183150183,42.1955,-72.5756
LD.ME_YK   13.2,61.96833218864469,62.67807921245421,-0.0486149267399267,-0.6611320970695971,43.953613,-69.695511
LD.MICHL_AV13.2,63.43422847985349,62.67807921245421,-0.0420581501831501,0.7982074175824176,43.265983,-72.394038
LD.MIDDLEST12.5,61.88968406593407,62.67807921245421,-0.2259123168498168,-0.5624828296703297,44.1011,-70.218734
LD.MIDDLEST34.5,61.88968406593407,62.67807921245421,-0.2259123168498168,-0.5624828296703297,44.1011,-70.218734
LD.MIDDLESX34.5,63.59741872710623,62.67807921245421,0.0698740842490842,0.8494654304029304,44.289091,-72.67926
LD.MIDDLTON23  ,63.14160027472528,62.67807921245421,0.1472928113553113,0.3162282509157509,42.629475,-71.048713
LD.MIDDL_ST13.8T1 LD,62.93511446886447,62.67807921245421,0.0779120879120879,0.1791231684981684,42.1559,-71.007
LD.MIDDL_ST13.8T2 LD,62.93511446886447,62.67807921245421,0.0779120879120879,0.1791231684981684,42.1559,-71.007
LD.MIDLBORO14.4,63.72806891025641,62.67807921245421,0.089709249084249,0.9602804487179488,41.89138,-70.903745
LD.MIDLEBRY46,62.85970695970696,62.67807921245421,0.0663576007326007,0.1152701465201465,44.014308,-73.1336
LD.MIDLE_RV13.8,60.55522321428572,62.67807921245421,-0.2519539835164835,-1.8709020146520148,41.403904,-73.489234
LD.MIDWAY  13.8,62.437044413919416,62.67807921245421,-0.0134329212454212,-0.2276018772893772,42.2873,-72.6182
LD.MILLBURY13.8,63.37622825091575,62.67807921245421,0.0599278846153846,0.6382211538461539,42.188052,-71.73759
LD.MILLBURY69,63.629356684981694,62.67807921245421,0.051198489010989,0.9000789835164835,42.188052,-71.73759
LD.MILL_PD 12.5,64.16487522893773,62.67807921245421,0.1457967032967033,1.3409993131868132,43.0682,-70.7783
LD.MILL_RV 13.8,61.34623855311355,62.67807921245421,-0.2574885531135531,-1.0743521062271064,41.308173,-72.908367
LD.MILL_ST 13.8,63.72479624542124,62.67807921245421,0.0885885989010989,0.958128434065934,41.995483,-70.938088
LD.MILSTONE345,60.24183493589744,62.67807921245421,-0.1250984432234432,-2.3111458333333332,41.314877,-72.165371
LD.MILVON  13.8,60.32007097069597,62.67807921245421,-0.2834512362637362,-2.0745570054945057,41.2123,-73.0809
LD.MINK    13.8,62.82045673076923,62.67807921245421,0.2502724358974359,-0.1078949175824176,41.790397,-71.330375
LD.MINK    23,63.0059706959707,62.67807921245421,0.1054052197802197,0.2224862637362637,41.790397,-71.330375
LD.MIX_AVE 13.8,61.2996875,62.67807921245421,-0.2785576923076923,-1.0998340201465202,41.372077,-72.923805
LD.MONADNCK34.5,62.57974816849818,62.67807921245421,-0.0417399267399267,-0.0565911172161172,42.829667,-72.167167
LD.MONMOUTH12,61.590423534798525,62.67807921245421,-0.3987660256410256,-0.688889652014652,44.18893,-69.99363
LD.MONMOUTH34.5,61.590423534798525,62.67807921245421,-0.3987660256410256,-0.688889652014652,44.18893,-69.99363
LD.MONTAGUE13.8,61.366122939560434,62.67807921245421,-0.0659317765567765,-1.2460244963369964,42.587307,-72.57738
LD.MOORE   13.8,62.39995421245421,62.67807921245421,0.0607016941391941,-0.3388266941391941,44.329094,-71.88435
LD.MOSHERS 12.5,62.47588713369963,62.67807921245421,0.1538621794871795,-0.3560542582417583,43.683585,-70.399428
LD.MOSHERS 34.5,62.47588713369963,62.67807921245421,0.1538621794871795,-0.3560542582417583,43.683585,-70.399428
LD.MOSHER_T115 ,61.12625915750916,62.67807921245421,-0.6825160256410256,-0.8693040293040293,44.9291,-72.2366
LD.MT_SUPP 13.8,64.30651327838827,62.67807921245421,-0.0411412545787545,1.6695753205128203,43.684012,-72.273908
LD.MUSSEYRD34.5,62.41547847985347,62.67807921245421,0.1526636904761905,-0.4152644230769231,43.621858,-70.330357
LD.MYSTC_NU13.8,61.695361721611725,62.67807921245421,-0.089481456043956,-0.8932360347985349,41.366467,-71.960267
LD.MYSTC_NU34.5,61.68882669413919,62.67807921245421,-0.089481456043956,-0.8997710622710622,41.366467,-71.960267
LD.MYSTIC  13.8,63.890869963369965,62.67807921245421,0.1493097527472527,1.063480998168498,42.3901,-71.0699
LD.MYSTIC  24.0,63.890869963369965,62.67807921245421,0.1493097527472527,1.063480998168498,42.3901,-71.0699
LD.M_WEYMTH13.8,62.9618440934066,62.67807921245421,0.0779120879120879,0.205852793040293,42.201954,-70.953698
LD.NASHUA  13.8,63.23009157509157,62.67807921245421,0.0603125,0.4916998626373626,42.284143,-71.799189
LD.NASNVILL13.8,62.30649038461539,62.67807921245421,0.0526236263736263,-0.4242124542124542,41.974214,-71.609791
LD.NEEDHAM 13.8,63.82449633699634,62.67807921245421,0.1604315476190476,0.9859855769230768,42.2717,-71.2394
LD.NEWCASTL34.5,61.82617101648352,62.67807921245421,-0.246738782051282,-0.6051694139194139,44.082897,-69.557984
LD.NEWFANE 46,62.282657967032975,62.67807921245421,-0.0450354853479853,-0.35038576007326,42.9677,-72.652
LD.NEWNGTON23,62.76737522893773,62.67807921245421,0.4104887820512821,-0.3211927655677655,41.717601,-72.750861
LD.NEWTON  13.8,63.83072802197802,62.67807921245421,0.1605815018315018,0.9920673076923078,42.317321,-71.211652
LD.NEWTOWN 13.8,60.3001076007326,62.67807921245421,-0.2657417582417582,-2.112229853479853,41.391186,-73.290031
LD.NEW_HAVN46,62.79174450549451,62.67807921245421,0.0664663461538461,0.0471989468864468,44.121351,-73.16348
LD.NE_SIMSB23,62.167383241758245,62.67807921245421,0.0683562271062271,-0.5790521978021979,41.90839,-72.792046
LD.NLONDNCT115,60.6559809981685,62.67807921245421,-0.0781913919413919,-1.9439068223443223,41.355831,-72.099571
LD.NMARLBRO13.8,64.21429601648352,62.67807921245421,0.0647012362637362,1.4715155677655678,42.362908,-71.600765
LD.NOERA_ST13.8,60.446039377289374,62.67807921245421,-0.2681822344322344,-1.9638576007326003,41.565905,-73.025163
LD.NORTH_RD34.5,64.01310897435897,62.67807921245421,0.0581021062271062,1.2769276556776556,43.391647,-72.099039
LD.NORWALK 13.8,60.619536401098905,62.67807921245421,-0.2516048534798534,-1.806937957875458,41.127026,-73.428095
LD.NORWALK 27.6,60.619536401098905,62.67807921245421,-0.2516048534798534,-1.806937957875458,41.127026,-73.428095
LD.NORWALK 4.8,60.619536401098905,62.67807921245421,-0.2516048534798534,-1.806937957875458,41.127026,-73.428095
LD.NORWAY  12.5,62.196778846153855,62.67807921245421,-0.0704258241758241,-0.4108745421245421,44.207224,-70.528241
LD.NORWAY  34.5,62.196778846153855,62.67807921245421,-0.0704258241758241,-0.4108745421245421,44.207224,-70.528241
LD.NORWELL 13.8,63.397248168498166,62.67807921245421,0.0836950549450549,0.6354739010989011,42.177824,-70.802218
LD.NORWOOD 13.8,63.61871222527472,62.67807921245421,0.0747229853479853,0.8659100274725275,42.2038,-71.2534
LD.NRTHBORO69,64.44056547619049,62.67807921245421,0.061860119047619,1.7006261446886446,42.315274,-71.571518
LD.NW_HARTF23,62.560762362637355,62.67807921245421,0.2713392857142857,-0.3886561355311355,41.783124,-72.704809
LD.N_ABNGTN13.8,63.397248168498166,62.67807921245421,0.0836950549450549,0.6354739010989011,42.126359,-70.93462
LD.N_ATTLEB13.8T1_LD,63.022474816849815,62.67807921245421,0.0891849816849816,0.2552106227106227,41.9522,-71.2985
LD.N_ATTLEB13.8T2T3_LD,62.99845810439561,62.67807921245421,0.0891964285714285,0.2311824633699633,41.9522,-71.2985
LD.N_AUGSTA12.5,61.065646749084245,62.67807921245421,-0.9526900183150184,-0.6597424450549451,44.363549,-69.797955
LD.N_AUGSTA34.5,61.065646749084245,62.67807921245421,-0.9526900183150184,-0.6597424450549451,44.363549,-69.797955
LD.N_BLOOM 23,62.16207417582417,62.67807921245421,0.1368807234432234,-0.65288576007326,41.892308,-72.757139
LD.N_CANAL 13.8,62.30714285714285,62.67807921245421,-0.0132348901098901,-0.3577014652014652,42.1998,-72.5972
LD.N_CANAL 34.5,62.30714285714285,62.67807921245421,-0.0132348901098901,-0.3577014652014652,42.1998,-72.5972
LD.N_CHELM 23,63.11974587912088,62.67807921245421,0.1453319597069597,0.296334706959707,42.636433,-71.377503
LD.N_DRACUT13.2,63.41001602564103,62.67807921245421,0.1467124542124542,0.585224358974359,42.688346,-71.310003
LD.N_FERRIS12.5,63.036863553113555,62.67807921245421,0.0669081959706959,0.2918761446886447,44.253367,-73.256215
LD.N_HAVEN 13.8,61.183556547619055,62.67807921245421,-0.3064526098901099,-1.188070054945055,41.414767,-72.842966
LD.N_KEENE 12.5,62.85190934065935,62.67807921245421,-0.0421943681318681,0.2160244963369963,42.9437,-72.3
LD.N_LONDON12.5,62.13366071428572,62.67807921245421,-0.0839835164835164,-0.4604349816849817,41.7092,-71.5038
LD.N_OXFORD13.2,62.75884043040293,62.67807921245421,-0.0272744963369963,0.1080357142857142,42.152997,-71.881565
LD.N_QUINCY13.8,62.72042582417583,62.67807921245421,0.0779120879120879,-0.0355654761904761,42.278634,-71.033065
LD.N_READNG13.8,63.52123511904762,62.67807921245421,0.1479830586080586,0.695172847985348,42.567115,-71.09843
LD.N_RUTLND46,62.6479304029304,62.67807921245421,-0.0442582417582417,0.0141094322344322,43.634119,-72.97274
LD.N_WALFRD13.8,60.73160370879121,62.67807921245421,-0.3537019230769231,-1.5927735805860803,41.491925,-72.762128
LD.N_WOBURN13.8110A LD,63.9051179029304,62.67807921245421,0.1482978479853479,1.0787408424908425,42.5089,-71.1268
LD.N_WOBURN13.8110B LD,63.93737522893773,62.67807921245421,0.1482978479853479,1.1109981684981685,42.5089,-71.1268
LD.N_WODSTK34.5,63.29349702380952,62.67807921245421,0.0603182234432234,0.5550995879120879,44.01134,-71.676967
LD.OAK_HILL34.5,63.75440361721611,62.67807921245421,0.061860119047619,1.0144642857142858,43.276573,-71.543591
LD.OAK_ST  23,63.716406822344325,62.67807921245421,0.0824496336996336,0.955877976190476,41.687063,-70.349858
LD.OCEAN_RD34.5,64.11491758241759,62.67807921245421,0.1457635073260073,1.2910748626373627,43.0425,-70.815
LD.OLD_BAPT12.5T1 LD,62.44301625457875,62.67807921245421,-0.0088827838827838,-0.226180173992674,41.609735,-71.477442
LD.OLD_BAPT12.5T2 LD,62.39823717948718,62.67807921245421,-0.013577152014652,-0.266264880952381,41.609735,-71.477442
LD.OLD_TOWN13.8,60.49479853479854,62.67807921245421,-0.2702220695970695,-1.913058608058608,41.224362,-73.216803
LD.ORCHARD 13.8,62.22766025641025,62.67807921245421,-0.0135096153846153,-0.4369093406593407,42.160409,-72.508607
LD.ORLEANS 24.0,63.74497252747252,62.67807921245421,0.0823477564102564,0.9845455586080586,41.780333,-69.999087
LD.OSWALD  23,61.37507783882784,62.67807921245421,-0.0727564102564102,-1.2302449633699637,42.437235,-73.287714
LD.OTIS    23,63.56208791208792,62.67807921245421,0.0827163461538461,0.8012923534798535,41.7189,-70.579
LD.OTTER_RV69,65.47014423076924,62.67807921245421,0.0272710622710622,2.764793956043956,42.6845,-72.0802
LD.OXFORD  13.8,59.36729739010989,62.67807921245421,-0.3484088827838827,-2.9623729395604395,41.465949,-73.132854
LD.P&WAIRCT115,61.364545558608064,62.67807921245421,0.0729029304029304,-1.3864365842490842,41.540502,-72.563592
LD.PALMER  13.2,62.34883814102564,62.67807921245421,-0.0144471153846153,-0.314793956043956,42.145189,-72.302957
LD.PALMER  23,62.34883814102564,62.67807921245421,-0.0144471153846153,-0.314793956043956,42.145189,-72.302957
LD.PALMER  69,62.36794413919414,62.67807921245421,-0.0105597527472527,-0.2995753205128205,42.145189,-72.302957
LD.PARKVIEW13.8,63.6330918040293,62.67807921245421,0.0856112637362637,0.8694013278388278,42.1027,-71.073148
LD.PARK_ST 34.5,61.36988896520146,62.67807921245421,-0.6494310897435898,-0.6587591575091575,44.10229,-69.122811
LD.PARTRIDG23,61.123038003663005,62.67807921245421,-0.0762900641025641,-1.4787511446886448,42.487408,-73.216587
LD.PAVEPAWS23,63.49181891025641,62.67807921245421,0.0827380952380952,0.7310016025641025,41.766478,-70.558105
LD.PAWTUCKT13.8,63.37744276556776,62.67807921245421,0.1015567765567765,0.5978067765567765,41.86732,-71.381789
LD.PAXTON  13.8,63.142126831501834,62.67807921245421,-0.0419207875457875,0.5059684065934066,42.29139,-71.945472
LD.PEACABLE13.8,60.72494848901099,62.67807921245421,-0.2519070512820512,-1.701223672161172,41.268204,-73.429966
LD.PELHAM  13.2,63.24085851648352,62.67807921245421,0.1459947344322344,0.4167845695970696,42.736647,-71.309837
LD.PEMIGWAS34.5,64.0629635989011,62.67807921245421,0.0609695512820512,1.323914835164835,43.597,-71.709833
LD.PEQUONCK13.8,60.40129464285714,62.67807921245421,-0.2545959249084249,-2.022188644688645,41.172435,-73.184917
LD.PERRY_ST13.8,63.41001602564103,62.67807921245421,0.1467124542124542,0.585224358974359,42.638442,-71.302053
LD.PHILIPD 23,62.749165521978014,62.67807921245421,0.345297619047619,-0.2742113095238095,41.845075,-71.366839
LD.PHILP_LN13.8,63.397248168498166,62.67807921245421,0.0836950549450549,0.6354739010989011,42.114321,-70.870995
LD.PINEHILL34.5,63.26988324175824,62.67807921245421,0.1445432692307692,0.44726076007326,43.056534,-71.444301
LD.PINEHRST13.2,63.624765338827835,62.67807921245421,0.1477815934065934,0.7989045329670329,42.539149,-71.216565
LD.PINESHED13.8,62.38054372710624,62.67807921245421,-0.0132989926739926,-0.2842364926739927,42.2472,-72.5901
LD.PINE_ST 13.2,63.6451945970696,62.67807921245421,0.0933070054945054,0.8738083791208792,41.6297,-70.920917
LD.PIPER   13.8,62.18893658424909,62.67807921245421,-0.0124450549450549,-0.4766975732600733,42.138754,-72.640657
LD.PLAINFLD23,61.14514995421246,62.67807921245421,-0.0740682234432234,-1.458861034798535,42.522244,-72.913619
LD.PLAIN_ST13.8,63.06738667582417,62.67807921245421,0.0779120879120879,0.3113953754578754,42.197237,-70.999255
LD.PLEASANT23,61.76578525641026,62.67807921245421,-0.0594826007326007,-0.8528113553113553,42.285092,-73.240646
LD.PLSNT_HL12.5,62.580288461538466,62.67807921245421,0.152712912087912,-0.250503663003663,43.598342,-70.294053
LD.PLSNT_HL34.5,62.580288461538466,62.67807921245421,0.152712912087912,-0.250503663003663,43.598342,-70.294053
LD.PLUMTREE13.8,60.55522321428572,62.67807921245421,-0.2519539835164835,-1.8709020146520148,41.3917,-73.4021
LD.PLYMOUTH13.8,63.397248168498166,62.67807921245421,0.0836950549450549,0.6354739010989011,42.100485,-70.926109
LD.PODICK  13.8,61.79265911172162,62.67807921245421,-0.0414010989010989,-0.8440190018315019,42.424545,-72.536904
LD.PONDVIL 69,63.71979967948718,62.67807921245421,0.0435611263736263,0.9981593406593406,42.196974,-71.821028
LD.PONTIAC 12.5,62.25953525641026,62.67807921245421,-0.0412065018315018,-0.3773374542124542,41.735838,-71.455421
LD.POOTATCK13.8,60.06100732600732,62.67807921245421,-0.2935016025641025,-2.3235702838827836,41.2766,-73.1183
LD.PORTLAND23,61.508376831501835,62.67807921245421,0.0870936355311355,-1.2567960164835166,41.563839,-72.575768
LD.PORTSMTH34.5,64.00623626373626,62.67807921245421,0.145834478021978,1.1823225732600733,43.09736,-70.786033
LD.POWERSVL115,55.91926053113553,62.67807921245421,-4.387728937728937,-2.3710897435897436,45.618,-68.578306
LD.PRATT&W 115,63.17339858058609,62.67807921245421,0.1478537087912088,0.3474656593406593,43.310667,-70.725332
LD.PRAT_J  13.8,62.98217376373626,62.67807921245421,0.0541494963369963,0.2499450549450549,42.471594,-71.737794
LD.PRID_CRN12.5,62.53246222527472,62.67807921245421,0.1591403388278388,-0.304757326007326,43.710166,-70.338813
LD.PRID_CRN34.5,62.53246222527472,62.67807921245421,0.1591403388278388,-0.304757326007326,43.710166,-70.338813
LD.PROSPCT 69  U-21S-3LD,63.05477564102564,62.67807921245421,0.0537419871794871,0.3229544413919414,42.538714,-71.73821
LD.PROSPCT 69  V-22S-3LD,63.05477564102564,62.67807921245421,0.0537419871794871,0.3229544413919414,42.538714,-71.73821
LD.PUDDLDCK34.5,61.106530448717955,62.67807921245421,-0.9348065476190476,-0.6367422161172162,44.331467,-69.854102
LD.PUTNAM  13.8,63.648984661172165,62.67807921245421,0.1553479853479853,0.8155574633699634,42.3604,-71.1141
LD.PUTNM_PK12.5,62.08667124542125,62.67807921245421,-0.0093440934065934,-0.5820638736263736,41.866852,-71.522176
LD.PWRCO_RD13.21T_LD,63.41001602564103,62.67807921245421,0.1467124542124542,0.585224358974359,42.623919,-71.24649
LD.PWRCO_RD13.22T_LD,63.400155677655675,62.67807921245421,0.1466929945054945,0.5753834706959707,42.623919,-71.24649
LD.QUAKR_HL34.5,63.29107028388279,62.67807921245421,0.1478010531135531,0.4651900183150183,43.288114,-70.742779
LD.QUEENCTY13.8,63.219547847985346,62.67807921245421,0.0673649267399267,0.4741037087912088,44.445613,-73.21874
LD.QUEENCTY34.5,63.219547847985346,62.67807921245421,0.0673649267399267,0.4741037087912088,44.445613,-73.21874
LD.QUINNIPC13.8,61.33724702380952,62.67807921245421,-0.2683985805860805,-1.072433608058608,41.317965,-72.877524
LD.RAILYARD13.8,63.31562614468865,62.67807921245421,0.1482028388278388,0.4893440934065934,42.513543,-70.896953
LD.RAILYARD23,63.31310554029304,62.67807921245421,0.1482028388278388,0.486823489010989,42.513543,-70.896953
LD.RAYMOND 34.5,62.47789377289377,62.67807921245421,0.0893898809523809,-0.2895753205128205,43.944116,-70.494726
LD.RAYNHAM 13.8,63.3045054945055,62.67807921245421,0.0995833333333333,0.5268429487179487,41.9721,-71.017
LD.RCHSTER 34.5,63.80907051282052,62.67807921245421,0.1454292582417582,0.9855620421245422,43.307833,-70.997667
LD.RCKY_HL 13.8,63.449076236263735,62.67807921245421,0.0726499542124542,0.6983470695970696,42.15751,-71.488466
LD.RDSFERRY34.5,63.03890682234432,62.67807921245421,0.1443257783882783,0.2165018315018315,42.871667,-71.487667
LD.READING 13.8,63.98277930402931,62.67807921245421,0.1482978479853479,1.1564022435897436,42.5089,-71.1264
LD.READING 34.5,63.98277930402931,62.67807921245421,0.1482978479853479,1.1564022435897436,42.5089,-71.1264
LD.READ_ST 13.2,63.09913003663004,62.67807921245421,0.0904407051282051,0.330610119047619,41.914341,-71.342369
LD.READ_ST 23,63.09669070512819,62.67807921245421,0.0904407051282051,0.3281707875457875,41.914341,-71.342369
LD.READ_ST 69,63.09870535714286,62.67807921245421,0.0904407051282051,0.3301854395604395,41.914341,-71.342369
LD.REDBROOK34.5,62.35949862637362,62.67807921245421,0.1525892857142857,-0.4711698717948718,43.631194,-70.339521
LD.RESITNCE34.5,74.79941655090296,73.11520738241715,0.2334133756697757,1.450795792816035,43.0929,-70.7787
LD.REVERE  23,64.03176053113553,62.67807921245421,0.1492307692307692,1.2044505494505495,42.402715,-71.007804
LD.RIDGEFLD13.82X LD,60.72236034798535,62.67807921245421,-0.2519356684981685,-1.703783195970696,41.283092,-73.487511
LD.RIDGEFLD13.83X LD,60.72523008241758,62.67807921245421,-0.2518990384615385,-1.7009500915750917,41.283092,-73.487511
LD.RILEY   12.5,60.99980082417583,62.67807921245421,0.0836675824175824,-1.7619459706959708,44.507355,-70.247713
LD.RIMMON  34.5,63.67087912087913,62.67807921245421,0.1442181776556776,0.8485817307692308,43.005707,-71.503948
LD.RIVERSDE23  1X LD,62.35693108974359,62.67807921245421,0.2454361263736263,-0.5665842490842491,41.747578,-72.642787
LD.RIVERSDE23  3X LD,62.36290636446886,62.67807921245421,0.245437271062271,-0.560610119047619,41.747578,-72.642787
LD.ROCHESTR13.2,63.49362637362637,62.67807921245421,0.091095467032967,0.7244516941391942,41.738416,-70.850095
LD.ROCKNGHM13.2,63.18705013736263,62.67807921245421,0.1465304487179487,0.3624404761904762,42.77326,-71.22782
LD.ROCKVILE13.8,61.82184065934066,62.67807921245421,0.0748866758241758,-0.931125228937729,41.866783,-72.464038
LD.ROCKVILE27.6,61.82184065934066,62.67807921245421,0.0748866758241758,-0.931125228937729,41.866783,-72.464038
LD.ROCKY_HL23,62.75710164835165,62.67807921245421,0.4972962454212454,-0.4182738095238095,41.652715,-72.669137
LD.ROCKY_RV13.8,60.69305288461538,62.67807921245421,-0.2547287087912088,-1.730297619047619,41.582662,-73.434252
LD.ROLF_AVE13.8,63.10796932234432,62.67807921245421,0.059951923076923,0.3699381868131868,42.274102,-71.735551
LD.ROLF_AVE69,63.10796932234432,62.67807921245421,0.059951923076923,0.3699381868131868,42.274102,-71.735551
LD.ROOD_AVE23,62.32055059523809,62.67807921245421,0.2056994047619047,-0.5632280219780219,41.828517,-72.668894
LD.ROXBURY 34.5,60.380149954212456,62.67807921245421,-0.5308985805860806,-1.7670306776556777,44.627762,-70.596375
LD.RUMFD_IP34.5,60.36821771978022,62.67807921245421,-0.5300812728937729,-1.7797802197802195,44.531793,-70.522901
LD.RUMFORD 12.5,60.380149954212456,62.67807921245421,-0.5308985805860806,-1.7670306776556777,44.537316,-70.544609
LD.RVERSIDE13.8,62.76808379120879,62.67807921245421,0.0696955128205128,0.0203090659340659,42.004104,-71.507864
LD.RYNLD_AV13.2,62.9253559981685,62.67807921245421,0.0993818681318681,0.1478949175824175,41.885821,-71.195305
LD.SACKETT 13.8,61.31746565934066,62.67807921245421,-0.2751201923076923,-1.085493360805861,41.363418,-72.887072
LD.SACO_VLY34.5,63.77574748168499,62.67807921245421,-0.0857154304029304,1.1833836996336995,44.007544,-71.087803
LD.SALEM   23,63.29654876373627,62.67807921245421,0.1481593406593406,0.4703102106227106,42.526721,-70.876853
LD.SALISBRY69,61.592560668498166,62.67807921245421,-0.1305711996336996,-0.9549473443223444,41.921869,-73.464992
LD.SANDWICH24.0,63.60587110805861,62.67807921245421,0.0826110347985348,0.8451808608058609,41.7175,-70.4663
LD.SANDY_HK23,60.07670673076923,62.67807921245421,-0.2747115384615384,-2.3266609432234433,41.383269,-73.219923
LD.SANDY_PD23,62.73277472527473,62.67807921245421,0.0626419413919413,-0.0079464285714285,42.570821,-71.524022
LD.SANDY_PD345 SMDINTLD,62.63234088827839,62.67807921245421,0.0641208791208791,-0.1098592032967033,42.570821,-71.524022
LD.SANFORD 34.5,62.778241758241755,62.67807921245421,0.1486561355311355,-0.0484935897435897,43.428833,-70.734583
LD.SAPHINCK115,59.74632898351648,62.67807921245421,-1.594795100732601,-1.3369551282051282,44.703615,-69.646317
LD.SASCOCRK115,60.628725961538464,62.67807921245421,-0.2542914377289377,-1.7950618131868132,41.124323,-73.307865
LD.SAXONVIL13.8,63.877387820512816,62.67807921245421,0.1514766483516483,1.04783195970696,42.3242,-71.3863
LD.SCHILLER115,64.00952037545788,62.67807921245421,0.1458413461538461,1.1855998168498167,43.097309,-70.78633
LD.SCITICO 23,62.40605883699633,62.67807921245421,-0.0135645604395604,-0.258455815018315,41.97885,-72.510182
LD.SCITUATE13.8,63.397248168498166,62.67807921245421,0.0836950549450549,0.6354739010989011,42.19786,-70.761421
LD.SCOBIE  12.5,62.72292696886447,62.67807921245421,0.1453663003663003,-0.1005185439560439,42.903667,-71.340333
LD.SCOTIA  13.8,63.77269001831502,62.67807921245421,0.1565934065934066,0.9380173992673994,42.346778,-71.085877
LD.SEAFOOD 13.8,63.713059752747256,62.67807921245421,0.1570821886446886,0.8778983516483516,42.348044,-71.032889
LD.SEARS   69,60.77461767399268,62.67807921245421,-0.0840155677655677,-1.8194459706959707,42.870862,-72.925162
LD.SEWAL_ST12.5,62.71546016483517,62.67807921245421,0.1531387362637362,-0.1157577838827838,43.654549,-70.292993
LD.SEWAL_ST34.5,62.71546016483517,62.67807921245421,0.1531387362637362,-0.1157577838827838,43.654549,-70.292993
LD.SHAWS_HL13.8,60.228098672161174,62.67807921245421,-0.2355666208791208,-2.214413919413919,41.591583,-73.068032
LD.SHELBURN12.5,63.18349587912088,62.67807921245421,0.0672252747252747,0.4381913919413919,44.383253,-73.238752
LD.SHEPAUG 69,60.66216918498168,62.67807921245421,-0.251996336996337,-1.7639136904761905,41.448858,-73.294378
LD.SHERBORN13.8,63.746454899267405,62.67807921245421,0.1520627289377289,0.916312957875458,42.2569,-71.4111
LD.SHERWOOD13.8,60.6472081043956,62.67807921245421,-0.2542857142857143,-1.7765853937728937,41.1217,-73.316
LD.SHUNOCK 13.8,62.11264766483516,62.67807921245421,-0.0989400183150183,-0.4664915293040293,41.41256,-71.846337
LD.SHUNPIKE13.2,61.730772664835165,62.67807921245421,-0.1727678571428571,-0.7745386904761905,41.8015,-71.5155
LD.SILVER  13.8,62.04266941391941,62.67807921245421,-0.012036401098901,-0.6233733974358975,42.060987,-72.641054
LD.SLAYTNHL13.8,64.23837339743591,62.67807921245421,-0.0413404304029304,1.6016346153846153,43.63253,-72.286627
LD.SNAKE_HL13.2,62.39974816849816,62.67807921245421,-0.0253353937728937,-0.2529956501831502,42.125508,-72.001217
LD.SNOW_ST 13.2T1 LD,62.39974816849816,62.67807921245421,-0.0253353937728937,-0.2529956501831502,42.082848,-72.031925
LD.SNOW_ST 13.2T2 LD,62.39974816849816,62.67807921245421,-0.0253353937728937,-0.2529956501831502,42.082848,-72.031925
LD.SOKANSET23  T1 LD,62.25953525641026,62.67807921245421,-0.0412065018315018,-0.3773374542124542,41.754298,-71.440401
LD.SOKANSET23  T2 LD,62.25953525641026,62.67807921245421,-0.0412065018315018,-0.3773374542124542,41.754298,-71.440401
LD.SOMERVIL13.8,63.816837225274725,62.67807921245421,0.1564903846153846,0.9822676282051284,42.3779,-71.0953
LD.SONO    13.8,60.77177541208791,62.67807921245421,-0.2522275641025641,-1.6540762362637362,41.09069,-73.42579
LD.SOTHNGTN13.8,60.4175206043956,62.67807921245421,-0.4730528846153846,-1.7875057234432234,41.587386,-72.867116
LD.SOUTHEND13.2,60.85749198717949,62.67807921245421,-0.2517525183150183,-1.568834706959707,41.048059,-73.537578
LD.SOUTHWCK23,62.176418269230766,62.67807921245421,-0.0188839285714285,-0.4827770146520146,42.014862,-72.794777
LD.SO_HERO 13.2,61.91472527472528,62.67807921245421,0.0393406593406593,-0.8026945970695971,44.666996,-73.33863
LD.SPEEN_ST13.8,63.8605940934066,62.67807921245421,0.1517490842490842,1.0307657967032968,42.3116,-71.3884
LD.SPRNG_ST12.5,62.18761332417582,62.67807921245421,0.1525423534798534,-0.6430082417582417,43.651678,-70.360151
LD.SPRNG_ST34.5,62.18761332417582,62.67807921245421,0.1525423534798534,-0.6430082417582417,43.651678,-70.360151
LD.STALBANS34.5,61.944247939560434,62.67807921245421,0.0686858974358974,-0.8025171703296703,44.80441,-73.09893
LD.STAPLES 13.8,62.96137248168499,62.67807921245421,0.0764537545787545,0.2068395146520146,41.980681,-71.445857
LD.STCKHOSE13.8,61.25787889194139,62.67807921245421,-0.0478766025641025,-1.372323717948718,41.571753,-72.144148
LD.STEPSTON23,61.60784111721611,62.67807921245421,-0.236040521978022,-0.8341975732600733,41.320736,-72.697724
LD.STERLING13.8,62.86711538461538,62.67807921245421,0.0569734432234432,0.1320627289377289,42.451938,-71.737354
LD.STEVENSN27.6,59.85435668498168,62.67807921245421,-0.3087328296703296,-2.5149896978021977,41.382502,-73.170669
LD.STFRD_ST13.8,63.328906822344315,62.67807921245421,-0.0396955128205128,0.6905231227106227,42.225029,-71.862108
LD.STICKNEY34.5,60.94573145604396,62.67807921245421,-0.9053651556776556,-0.8269826007326008,44.2381,-69.3816
LD.STJHNSBY34.5,62.38378319597069,62.67807921245421,0.0715979853479853,-0.3658940018315018,44.417915,-71.9839
LD.STONY_HL13.8,60.6376510989011,62.67807921245421,-0.251966575091575,-1.7884615384615383,41.434368,-73.387896
LD.STOUGHTN13.8,63.63416437728938,62.67807921245421,0.0857898351648351,0.8702953296703296,42.117453,-71.096225
LD.STOWE   34.5,63.56990728021977,62.67807921245421,0.0694551282051282,0.8223729395604396,44.4591,-72.6982
LD.STURTVNT12.5,60.02508814102565,62.67807921245421,-0.7417754120879121,-1.9112156593406595,44.655163,-70.127441
LD.STURTVNT34.5,60.02508814102565,62.67807921245421,-0.7417754120879121,-1.9112156593406595,44.655163,-70.127441
LD.SUDBURY 13.8,63.91192536630036,62.67807921245421,0.150989010989011,1.082857142857143,42.360034,-71.397024
LD.SWANSEA 13.8,62.918605769230766,62.67807921245421,0.1170730311355311,0.1234535256410256,41.749033,-71.210579
LD.SWANZEY 12.5,62.76276442307692,62.67807921245421,-0.0428891941391941,0.1275744047619047,42.873369,-72.317773
LD.SW_HARTF23,62.562418727106234,62.67807921245421,0.2939949633699634,-0.4096554487179487,41.750937,-72.711947
LD.SYKES_RD13.8,63.069503205128214,62.67807921245421,0.1107852564102564,0.2806387362637362,41.740386,-71.115902
LD.S_BROADW23,63.41350961538462,62.67807921245421,0.1466815476190476,0.5887488553113553,42.695243,-71.161687
LD.S_DANVRS115,63.3084375,62.67807921245421,0.1478193681318681,0.4825389194139194,42.5535,-70.9538
LD.S_MEADOW23,62.39225618131868,62.67807921245421,0.2517055860805861,-0.5375286172161172,41.750102,-72.653076
LD.S_MILFRD34.5,63.012553800366305,62.67807921245421,0.1443200549450549,0.1901545329670329,42.820171,-71.644163
LD.S_NAUGTK13.8,59.64302541208791,62.67807921245421,-0.3470902014652014,-2.687963598901099,41.474462,-73.056529
LD.S_RANDOL13.8,63.24131753663004,62.67807921245421,0.0771336996336996,0.4861046245421245,42.154528,-71.042662
LD.S_WINDSR13.8,61.91892055860805,62.67807921245421,0.1164377289377289,-0.8755963827838827,41.840157,-72.60099
LD.S_WRENTM23,62.99452724358974,62.67807921245421,0.0857429029304029,0.2307051282051282,42.030002,-71.349249
LD.TAFTS_CR12.5,63.14934752747252,62.67807921245421,0.0678125,0.403455815018315,44.44015,-73.11175
LD.TAFTS_CR34.5,63.14934752747252,62.67807921245421,0.0678125,0.403455815018315,44.44015,-73.11175
LD.TASKERFM34.5,63.80907051282052,62.67807921245421,0.1454292582417582,0.9855620421245422,43.3876,-70.996
LD.TAUNTON 13.8,63.46021291208792,62.67807921245421,0.1178582875457875,0.6642754120879121,41.86527,-71.105522
LD.TEWKSBRY13.8,63.36519917582417,62.67807921245421,0.1461320970695971,0.5409878663003662,42.622765,-71.242223
LD.THOMASTN13.8,60.85274152930403,62.67807921245421,-0.2557532051282051,-1.569584478021978,41.675177,-73.06957
LD.THORNDIK13.2,62.222644230769234,62.67807921245421,-0.0140739468864468,-0.4413610347985348,42.198973,-72.344617
LD.THORNTON34.5,62.85504807692307,62.67807921245421,0.1443040293040293,0.0326648351648351,42.8305,-71.4834
LD.TILLSON 13.8,62.25914835164835,62.67807921245421,-0.0135496794871794,-0.4053811813186813,42.3972,-72.5058
LD.TIMBER  34.5,62.35774038461538,62.67807921245421,0.1457200091575091,-0.466058836996337,42.9498,-70.8688
LD.TIVERTON12.5,62.84005151098901,62.67807921245421,0.0912236721611721,0.0707486263736263,41.643771,-71.184186
LD.TODD    13.8,60.55298878205129,62.67807921245421,-0.2771050824175824,-1.847985347985348,41.572664,-72.975381
LD.TOMAC   27.6,60.9323408882784,62.67807921245421,-0.2517513736263736,-1.4939869505494503,41.034022,-73.563337
LD.TOPSHAM 34.5,62.42032623626373,62.67807921245421,0.1188015109890109,-0.3765544871794872,43.940222,-69.970944
LD.TORRNGTN13.2,61.03487293956045,62.67807921245421,-0.2147802197802197,-1.428426053113553,41.776369,-73.120773
LD.TOWER_HL13.0,62.51917353479853,62.67807921245421,-0.0131684981684981,-0.1457371794871794,41.548801,-71.471461
LD.TRACY   23  ,61.547842261904755,62.67807921245421,-0.074223901098901,-1.0560130494505495,41.883936,-71.890417
LD.TRAPELO 13.8,63.92373054029304,62.67807921245421,0.1500675366300366,1.0955837912087911,42.4143,-71.2523
LD.TRAPFALS13.8,60.06692994505494,62.67807921245421,-0.2927117673992674,-2.3184375,41.267137,-73.117956
LD.TREASURE13.8,62.928628663003664,62.67807921245421,-0.0469207875457875,0.2974702380952381,42.32034,-71.98497
LD.TREMONT 23,63.356353021978016,62.67807921245421,0.0869574175824175,0.591316391941392,41.801479,-70.764291
LD.TRENTON 34.5,58.574594780219776,62.67807921245421,-2.5352804487179488,-1.5682039835164836,44.438907,-68.374562
LD.TRIANGLE13.8,60.55522321428572,62.67807921245421,-0.2519539835164835,-1.8709020146520148,41.393674,-73.435225
LD.TRUMBULL13.8,60.33165178571429,62.67807921245421,-0.2690464743589743,-2.077380952380953,41.232463,-73.160692
LD.TUNK    34.5,58.34901327838828,62.67807921245421,-2.540904304029304,-1.78816163003663,44.544019,-68.108832
LD.TUNNEL  23  ,61.00438988095238,62.67807921245421,-0.0753021978021978,-1.5983871336996338,41.554998,-72.04274
LD.TUNNEL  69,60.98044871794871,62.67807921245421,-0.0753021978021978,-1.6223282967032966,41.554998,-72.04274
LD.UNCASVIL13.21X LD,60.6559809981685,62.67807921245421,-0.0781913919413919,-1.9439068223443223,41.429158,-72.116371
LD.UNCASVIL13.22X LD,60.6559809981685,62.67807921245421,-0.0781913919413919,-1.9439068223443223,41.429158,-72.116371
LD.UNCASVIL27.6,60.6559809981685,62.67807921245421,-0.0781913919413919,-1.9439068223443223,41.429158,-72.116371
LD.UNION   34.5,61.02746794871794,62.67807921245421,-0.8701659798534798,-0.7804452838827839,44.2204,-69.2849
LD.UNION_AV115,61.35108173076924,62.67807921245421,-0.2575515109890109,-1.0694459706959707,41.3002,-72.9242
LD.UNION_ST13.8,63.142782738095235,62.67807921245421,0.0830940934065934,0.3816094322344322,42.059705,-71.398146
LD.UXBRIDGE13.8,63.00579441391941,62.67807921245421,0.0575331959706959,0.2701820054945055,42.074168,-71.6224
LD.VALLEY  13.8,63.088897664835166,62.67807921245421,0.0849599358974359,0.3258585164835164,41.913028,-71.38474
LD.VALLEY  23,63.088981227106224,62.67807921245421,0.0849599358974359,0.3259420787545787,41.913028,-71.38474
LD.VALLEYNB23,63.47626373626374,62.67807921245421,0.0837580128205128,0.7144265109890109,41.782901,-70.601315
LD.VALLY_LN34.5,62.60486836080586,62.67807921245421,0.1494528388278388,-0.2226636904761904,43.5195,-70.4121
LD.VERGENNE34.5,62.935355998168504,62.67807921245421,0.0667067307692307,0.1905700549450549,44.179094,-73.24935
LD.VERNON  69,61.89427655677656,62.67807921245421,-0.0080265567765567,-0.7757760989010989,42.771566,-72.515227
LD.VERNONHL13.8,63.50696428571428,62.67807921245421,0.0600618131868131,0.7688232600732601,42.238546,-71.795445
LD.VERNONRD46,62.22455586080586,62.67807921245421,-0.0447115384615384,-0.4088118131868132,42.8377,-72.551
LD.VERNONRD69,62.22455586080586,62.67807921245421,-0.0447115384615384,-0.4088118131868132,42.8377,-72.551
LD.WACHUS  69,62.74922733516483,62.67807921245421,0.0604967948717948,0.0106513278388278,42.360399,-71.776021
LD.WAKEFLD 13.8,63.49577380952381,62.67807921245421,0.1487511446886447,0.6689434523809524,42.4718,-71.0454
LD.WALLACE 13.8,63.45198374542125,62.67807921245421,0.1486332417582417,0.6252712912087912,42.5125,-71.0432
LD.WALNGFRD13.8,61.05576350732601,62.67807921245421,-0.3272035256410256,-1.2951121794871796,41.448618,-72.834289
LD.WALPOLE 14.4,63.4593646978022,62.67807921245421,0.0733722527472527,0.7079132326007326,42.1301,-71.2566
LD.WALTHAM 13.8,63.90587568681318,62.67807921245421,0.1502690018315018,1.0775274725274726,42.377984,-71.263032
LD.WAMPNOAG12.5,62.702727793040296,62.67807921245421,0.3611458333333333,-0.3364972527472527,41.802269,-71.348391
LD.WARD_HIL13.2,62.85652472527472,62.67807921245421,0.1467960164835165,0.0316494963369963,42.744262,-71.114078
LD.WARD_HIL23,62.85652472527472,62.67807921245421,0.1467960164835165,0.0316494963369963,42.744262,-71.114078
LD.WARE    69,62.88605425824175,62.67807921245421,0.0037248168498168,0.2042502289377289,42.274618,-72.215055
LD.WAREHAM 23,63.42599587912088,62.67807921245421,0.0854899267399267,0.66242673992674,41.7881,-70.6922
LD.WARREN  12.5T1 LD,62.79387591575093,62.67807921245421,0.2446943681318681,-0.1288976648351648,41.733937,-71.280987
LD.WARREN  12.5T2 LD,62.95382211538461,62.67807921245421,0.1118200549450549,0.1639228479853479,41.733937,-71.280987
LD.WARREN  23  T5 LD,62.95382211538461,62.67807921245421,0.1118200549450549,0.1639228479853479,41.733937,-71.280987
LD.WARREN  23  T6 LD,62.79387591575093,62.67807921245421,0.2446943681318681,-0.1288976648351648,41.733937,-71.280987
LD.WASHNGTN34.5,56.830679945054946,62.67807921245421,-3.7139251373626374,-2.13347413003663,44.675552,-67.546241
LD.WATERBOR12.5,62.66634958791209,62.67807921245421,0.1492399267399267,-0.1609695512820513,43.576792,-70.695793
LD.WATERFRD23,60.6559809981685,62.67807921245421,-0.0781913919413919,-1.9439068223443223,41.3765,-72.1895
LD.WATERSDE13.2,60.95459020146521,62.67807921245421,-0.2517502289377289,-1.4717387820512822,41.037548,-73.555246
LD.WATERTWN13.8,63.85989354395605,62.67807921245421,0.1564480311355311,1.0253663003663005,42.36515,-71.179307
LD.WATER_RV23,63.31140224358975,62.67807921245421,0.1479166666666666,0.4854063644688645,42.543552,-70.928684
LD.WATER_ST13.8,63.397248168498166,62.67807921245421,0.0836950549450549,0.6354739010989011,42.10158,-70.831497
LD.WATRSTUI13.8,61.35373168498168,62.67807921245421,-0.2575320512820513,-1.0668154761904762,41.301481,-72.921406
LD.WBSTR_ST13.8,63.387561813186814,62.67807921245421,-0.0391575091575091,0.7486401098901099,42.243876,-71.832004
LD.WEARE   34.5,63.72176968864469,62.67807921245421,0.1420810439560439,0.9016094322344322,43.032503,-71.660148
LD.WEBSTER 34.5,64.082100503663,62.67807921245421,0.0610405219780219,1.3429807692307694,43.456,-71.674167
LD.WELFLEET23,63.74497252747252,62.67807921245421,0.0823477564102564,0.9845455586080586,41.947304,-70.01765
LD.WENDLDPT13.8,61.718875915750914,62.67807921245421,-0.0549839743589743,-0.9042193223443225,42.594875,-72.364583
LD.WESTBORO69,64.48418498168498,62.67807921245421,0.0586916208791208,1.7474141483516483,42.272994,-71.621295
LD.WESTFORD13.2,63.052965888278386,62.67807921245421,0.1451739926739926,0.2297126831501831,42.567119,-71.460915
LD.WESTON  27.6,60.50047847985349,62.67807921245421,-0.2593063186813187,-1.918294413919414,41.189621,-73.371338
LD.WESTSIDE13.2,62.64859775641026,62.67807921245421,0.4380105311355311,-0.4674919871794872,41.563195,-72.662498
LD.WHITEFLD34.5,61.24971840659341,62.67807921245421,-0.1956227106227106,-1.2327380952380953,44.379273,-71.608382
LD.WHITE_LK34.5,64.25129578754579,62.67807921245421,0.0604716117216117,1.5127449633699634,43.848,-71.206
LD.WHTNS_PD13.8,63.124575320512825,62.67807921245421,0.0587625915750915,0.3877335164835164,42.105627,-71.671264
LD.WILDER  13.8,64.27192994505494,62.67807921245421,-0.0410428113553113,1.634893543956044,43.668531,-72.303681
LD.WILLIAMS13.2,60.6559809981685,62.67807921245421,-0.0781913919413919,-1.9439068223443223,41.36813,-72.103667
LD.WILMATC 27.61X2 LD,61.33687499999999,62.67807921245421,-0.0574175824175824,-1.28378663003663,41.712902,-72.228902
LD.WILMATC 27.62X2 LD,61.33687499999999,62.67807921245421,-0.0574175824175824,-1.28378663003663,41.712902,-72.228902
LD.WILMATC 4.8 1X3 LD,61.33687499999999,62.67807921245421,-0.0574175824175824,-1.28378663003663,41.712902,-72.228902
LD.WILMATC 4.8 2X3 LD,61.33687499999999,62.67807921245421,-0.0574175824175824,-1.28378663003663,41.712902,-72.228902
LD.WILTON  13.8,60.69620993589744,62.67807921245421,-0.2519013278388278,-1.729967948717949,41.200178,-73.432271
LD.WINDSOR 46,63.52779761904762,62.67807921245421,-0.0421279761904761,0.8918463827838828,43.489898,-72.40852
LD.WINGLANE13.2,63.61479166666666,62.67807921245421,0.0939068223443223,0.8428056318681318,41.677387,-70.897082
LD.WINSLOW 34.5,60.222704899267406,62.67807921245421,-1.3083756868131868,-1.1469986263736265,44.569348,-69.60334
LD.WNDSRLKS23,61.82184065934066,62.67807921245421,0.0748866758241758,-0.931125228937729,41.91895,-72.626394
LD.WNDSRLKS27.6,61.82184065934066,62.67807921245421,0.0748866758241758,-0.931125228937729,41.91895,-72.626394
LD.WOBURN  13.8,63.76710508241759,62.67807921245421,0.1490682234432234,0.9399576465201464,42.4628,-71.1538
LD.WOLF_HL 23,62.22002403846154,62.67807921245421,0.0795169413919413,-0.5375721153846154,41.881516,-71.527004
LD.WOODCHUK13.2,63.07075778388278,62.67807921245421,0.1471222527472527,0.2455563186813186,42.673471,-71.057773
LD.WOODLAND23,61.4888782051282,62.67807921245421,-0.0653411172161172,-1.1238598901098902,42.336115,-73.235237
LD.WOODMONT13.8,60.472740384615385,62.67807921245421,-0.2789182692307692,-1.9264205586080585,41.237162,-73.013352
LD.WOODSIDE69,64.24850045787547,62.67807921245421,0.060452152014652,1.5099690934065937,42.330005,-71.630838
LD.WOODSTCK34.5,61.405554029304035,62.67807921245421,0.0344871794871794,-1.3070123626373626,44.389283,-70.629399
LD.WOOD_RV 34.5,62.63138736263737,62.67807921245421,0.0051877289377289,-0.0518795787545787,41.427524,-71.704111
LD.WOONSCKT13.8,62.40151098901099,62.67807921245421,0.0549393315018315,-0.3315075549450549,41.9793,-71.5235
LD.WSHNGTN 14.4,62.80644345238095,62.67807921245421,0.0712809065934065,0.0570833333333333,41.937191,-71.462089
LD.WYMAN_HY12.5,57.615075549450545,62.67807921245421,-2.224776785714286,-2.8382268772893773,45.071448,-69.90279
LD.WYMNGRDN115,63.56368360805861,62.67807921245421,0.0603559981684981,0.8252483974358974,42.232966,-71.730096
LD.W_AMESBY13.2,62.51140224358974,62.67807921245421,0.146547619047619,-0.3132245879120879,42.833017,-70.972595
LD.W_AMESBY23,62.51140224358974,62.67807921245421,0.146547619047619,-0.3132245879120879,42.833017,-70.972595
LD.W_ANDOVR13.8T10 LD,63.41382898351648,62.67807921245421,0.1466288919413919,0.5891208791208792,42.685509,-71.188359
LD.W_ANDOVR13.8T20 LD,63.40997481684982,62.67807921245421,0.1467124542124542,0.5851831501831501,42.685509,-71.188359
LD.W_ANDOVR34.5T10 LD,63.41382898351648,62.67807921245421,0.1466288919413919,0.5891208791208792,42.685509,-71.188359
LD.W_ANDOVR34.5T20 LD,63.40997481684982,62.67807921245421,0.1467124542124542,0.5851831501831501,42.685509,-71.188359
LD.W_BOYLST13.8,62.75822000915752,62.67807921245421,0.0609134615384615,0.0192273351648351,42.360447,-71.775784
LD.W_BROKFD13.8,60.69383127289378,62.67807921245421,-0.2546119505494505,-1.7296359890109891,41.482585,-73.431271
LD.W_BUXTON34.5,62.57848443223443,62.67807921245421,0.1498546245421245,-0.2494494047619047,43.665932,-70.596579
LD.W_CHRLTN13.2,62.40550595238095,62.67807921245421,-0.0242799908424908,-0.2482932692307692,42.137164,-72.027869
LD.W_CRNSTN12.5,61.93142628205128,62.67807921245421,-0.1289858058608058,-0.6176671245421245,41.756863,-71.521817
LD.W_FRMHAM13.8,64.15003319597069,62.67807921245421,0.1494562728937729,1.3224977106227107,42.298393,-71.481503
LD.W_HAMDEN13.2,62.31471382783882,62.67807921245421,-0.0140670787545787,-0.3492983058608058,42.0688,-72.4612
LD.W_HAMDEN69,62.31471382783882,62.67807921245421,-0.0140670787545787,-0.3492983058608058,42.0688,-72.4612
LD.W_KENNEB115,62.650663919413915,62.67807921245421,0.1482440476190476,-0.1756593406593406,43.3638,-70.4673
LD.W_KNGSTN34.5,62.658146749084246,62.67807921245421,0.0012877747252747,-0.021220238095238,41.472698,-71.57412
LD.W_METHUE23,63.23010531135531,62.67807921245421,0.1464903846153846,0.4055357142857143,42.728465,-71.201397
LD.W_POND  23,63.39314445970696,62.67807921245421,0.0826705586080586,0.6323946886446887,41.9275,-70.703
LD.W_SALEM 13.8,63.366378205128214,62.67807921245421,0.1483287545787545,0.5399702380952381,42.505043,-70.927307
LD.W_SALEM 23,63.36691391941392,62.67807921245421,0.1483310439560439,0.540503663003663,42.505043,-70.927307
LD.W_SPRFLD13.8,62.147470238095245,62.67807921245421,-0.0114491758241758,-0.5191597985347985,42.095792,-72.596539
LD.YARMOUTH34.5,62.76869734432234,62.67807921245421,0.1532543498168498,-0.0626362179487179,43.751242,-70.155516
UN.9DRAGONS115 BOIS,60.380149954212456,62.67807921245421,-0.5308985805860806,-1.7670306776556777,44.549482,-70.540993
UN.ALBIONRD34.5TCRS,60.21500686813187,62.67807921245421,-1.2678102106227107,-1.1952621336996336,44.570789,-69.509292
UN.ALTRESCO13.8ALTR,61.14557463369963,62.67807921245421,-0.075352564102564,-1.4571520146520147,42.45587,-73.21809
UN.ASCUTNEY46  ASCU,63.52779761904762,62.67807921245421,-0.0421279761904761,0.8918463827838828,43.401128,-72.41952
UN.ASHLAND 34.5BRID,63.974717261904765,62.67807921245421,0.0609134615384615,1.235724587912088,43.691333,-71.637667
UN.ATHENSME12.5ATHN,58.84205815018315,62.67807921245421,-1.617845695970696,-2.218175366300366,44.944722,-69.65925
UN.BARRE_VT34.5DODF,63.40665178571429,62.67807921245421,0.0705494505494505,0.6580231227106227,44.194315,-72.52246
UN.BARRE_VT34.5RYGT,63.40665178571429,62.67807921245421,0.0705494505494505,0.6580231227106227,44.194315,-72.52246
UN.BASELINE34.5DNEW,56.58436584249085,62.67807921245421,-3.859486034798535,-2.234227335164835,44.700424,-67.957027
UN.BEARSWMP13.8BSW1,60.79079212454212,62.67807921245421,-0.0811172161172161,-1.806169871794872,42.683761,-72.950073
UN.BEARSWMP13.8BSW2,60.79079212454212,62.67807921245421,-0.0811172161172161,-1.806169871794872,42.683761,-72.950073
UN.BELFAST 34.5GEOR,60.63986836080586,62.67807921245421,-1.076531593406593,-0.9616792582417582,44.456941,-69.039047
UN.BELLNGHM13.2NE1A,62.5704201007326,62.67807921245421,0.0641300366300366,-0.1717891483516483,42.091861,-71.483722
UN.BELLNGHM13.2NE1B,62.5704201007326,62.67807921245421,0.0641300366300366,-0.1717891483516483,42.091861,-71.483722
UN.BELLWSFL6.9 BELL,63.11128090659341,62.67807921245421,-0.0420787545787545,0.4752804487179487,43.132576,-72.44211
UN.BELL_30321  BEL1,62.772495421245424,62.67807921245421,0.0724187271062271,0.0219974816849816,42.109256,-71.451785
UN.BELL_30321  BEL2,62.772495421245424,62.67807921245421,0.0724187271062271,0.0219974816849816,42.109256,-71.451785
UN.BERK_PWR21  BERK,62.02446085164834,62.67807921245421,-0.0122470238095238,-0.6413713369963371,42.0481,-72.6479
UN.BERLINVT34.5BERL,63.550760073260065,62.67807921245421,0.0701865842490842,0.8024942765567765,44.249821,-72.60343
UN.BERLINVT34.5MARH,63.550760073260065,62.67807921245421,0.0701865842490842,0.8024942765567765,44.249821,-72.60343
UN.BERLN_NH13.8BURG,56.61843406593407,62.67807921245421,-4.826919642857143,-1.2327255036630036,44.463,-71.1797
UN.BERLN_NH22  BERP,61.24971840659341,62.67807921245421,-0.1956227106227106,-1.2327380952380953,44.463,-71.1797
UN.BERLN_NH22  BRLB,61.24971840659341,62.67807921245421,-0.1956227106227106,-1.2327380952380953,44.463,-71.1797
UN.BERLN_NH34.5GORH,61.24971840659341,62.67807921245421,-0.1956227106227106,-1.2327380952380953,44.463,-71.1797
UN.BERLN_NH34.5JERW,61.24971840659341,62.67807921245421,-0.1956227106227106,-1.2327380952380953,44.463,-71.1797
UN.BIGELOW 115 STRA,57.17031707875458,62.67807921245421,-2.669539835164835,-2.8382222985347982,45.101612,-70.353645
UN.BINGHAM 34.5BNGW,59.744396749084245,62.67807921245421,-1.3946978021978025,-1.5389846611721612,45.160446,-69.389022
UN.BLACK_RK69  NBFC,60.61640911172161,62.67807921245421,-0.3352117673992674,-1.7264583333333334,41.661956,-72.80545
UN.BLKSTONE21  BKS1,62.45381181318681,62.67807921245421,0.0625858516483516,-0.2868532509157508,42.059589,-71.513654
UN.BLKSTONE21  BKS2,62.45381181318681,62.67807921245421,0.0625858516483516,-0.2868532509157508,42.059589,-71.513654
UN.BPT_5CC 25  BHR5,60.1734581043956,62.67807921245421,-0.3762225274725274,-2.1283985805860803,41.167235,-73.181719
UN.BPT_ENER16  BHCC,60.1734581043956,62.67807921245421,-0.3762225274725274,-2.1283985805860803,41.1715,-73.1841
UN.BPT_RESC13.8BPTR,60.41636561355311,62.67807921245421,-0.2545524267399267,-2.0071611721611724,41.163018,-73.208328
UN.BRANFORD23  BRAN,61.491413690476186,62.67807921245421,-0.2576865842490842,-0.9289789377289378,41.292761,-72.793731
UN.BRIGHTON13.8MAT1,63.79064217032968,62.67807921245421,0.1564903846153846,0.9560725732600732,42.3573,-71.1318
UN.BRIGHTON13.8MAT2,63.79064217032968,62.67807921245421,0.1564903846153846,0.9560725732600732,42.3573,-71.1318
UN.BRIGHTON13.8MAT4,45.82444176319176,45.0747249034749,0.0919771557271557,0.657739703989704,42.3573,-71.1318
UN.BRIGHTON13.8MAT5,45.82444176319176,45.0747249034749,0.0919771557271557,0.657739703989704,42.3573,-71.1318
UN.BRIGHTON13.8MAT6,45.82444176319176,45.0747249034749,0.0919771557271557,0.657739703989704,42.3573,-71.1318
UN.BUCKSPRT18.0BCK4,58.97907051282051,62.67807921245421,-2.2482360347985346,-1.4507726648351649,44.5752,-68.8063
UN.BULLSBDG27.6BULL,60.69348672161173,62.67807921245421,-0.2547287087912088,-1.729863782051282,41.659038,-73.491288
UN.BULL_HL 34.5BLHW,56.65838026556776,62.67807921245421,-3.642410714285714,-2.377288232600733,44.722556,-68.163833
UN.BULL_HL 34.5HANW,56.65838026556776,62.67807921245421,-3.642410714285714,-2.377288232600733,44.722556,-68.163833
UN.BULL_HL 34.5WEVW,56.65838026556776,62.67807921245421,-3.642410714285714,-2.377288232600733,44.722556,-68.163833
UN.CAMPVILL27.6LITS,60.78580128205128,62.67807921245421,-0.2262236721611721,-1.666054258241758,41.737776,-73.086151
UN.CANAL   18.0CAN1,63.355494505494505,62.67807921245421,0.0811069139194139,0.5963083791208792,41.769,-70.51
UN.CANAL   18.0CAN2,63.355494505494505,62.67807921245421,0.0811069139194139,0.5963083791208792,41.769,-70.51
UN.CANAL   25  CAN3,63.355494505494505,62.67807921245421,0.0811069139194139,0.5963083791208792,41.769,-70.51
UN.CANTRBRY34.5QNBS,61.32782051282051,62.67807921245421,-0.0746634615384615,-1.2755952380952382,41.738509,-71.924976
UN.CAPE    13.2CAP4,62.71421932234433,62.67807921245421,0.1530792124542124,-0.1169391025641025,43.642438,-70.255069
UN.CAPE    13.2CAP5,62.71421932234433,62.67807921245421,0.1530792124542124,-0.1169391025641025,43.642438,-70.255069
UN.CHASE_PD34.5WMRW,57.38459134615385,62.67807921245421,-2.455251831501832,-2.838236034798535,45.140361,-69.84923
UN.CHEMICAL115 PERC,58.68330586080586,62.67807921245421,-2.2604246794871794,-1.7343486721611725,44.739069,-68.824818
UN.CHICOPEE13.8FRST,62.27637934981684,62.67807921245421,-0.0127483974358974,-0.3889514652014652,42.167113,-72.593426
UN.CHSTERME46  WENF,55.91926053113553,62.67807921245421,-4.387728937728937,-2.3710897435897436,45.39729,-68.525677
UN.CLIFTON 34.5PSGW,58.095337683150184,62.67807921245421,-2.559645146520147,-2.023096382783883,44.7773,-68.5234
UN.CLIFTON 34.5SLVW,58.095337683150184,62.67807921245421,-2.559645146520147,-2.023096382783883,44.7773,-68.5234
UN.COBBLEMT69  COBB,62.24205357142856,62.67807921245421,-0.0136000457875457,-0.4224255952380952,42.117172,-72.865173
UN.COLBURN 13.8MAT3,63.773840430402934,62.67807921245421,0.1565979853479853,0.9391632326007326,42.331587,-71.110886
UN.COMERFRD13.8COM1,62.49011446886447,62.67807921245421,0.0607886904761904,-0.2487534340659341,44.31958,-71.993365
UN.COMERFRD13.8COM2,62.49011446886447,62.67807921245421,0.0607886904761904,-0.2487534340659341,44.31958,-71.993365
UN.COMERFRD13.8COM3,62.49011446886447,62.67807921245421,0.0607886904761904,-0.2487534340659341,44.31958,-71.993365
UN.COMERFRD13.8COM4,62.49011446886447,62.67807921245421,0.0607886904761904,-0.2487534340659341,44.31958,-71.993365
UN.COMERFRD34.5MCIN,62.49011446886447,62.67807921245421,0.0607886904761904,-0.2487534340659341,44.31958,-71.993365
UN.CONGRESS13.8BPFC,60.39603250915751,62.67807921245421,-0.2586710164835165,-2.023375686813187,41.182419,-73.186785
UN.COOLIDGE34.5COLS,62.55308379120879,62.67807921245421,-0.0439674908424908,-0.0810279304029304,43.429247,-72.660032
UN.COSCOB  13.8CC10,60.9999896978022,62.67807921245421,-0.2517513736263736,-1.426338141025641,41.029047,-73.599153
UN.COSCOB  13.8CC11,60.9999896978022,62.67807921245421,-0.2517513736263736,-1.426338141025641,41.029047,-73.599153
UN.COSCOB  13.8CC12,60.9999896978022,62.67807921245421,-0.2517513736263736,-1.426338141025641,41.029047,-73.599153
UN.COSCOB  13.8CC13,60.9999896978022,62.67807921245421,-0.2517513736263736,-1.426338141025641,41.029047,-73.599153
UN.COSCOB  13.8CC14,60.9999896978022,62.67807921245421,-0.2517513736263736,-1.426338141025641,41.029047,-73.599153
UN.CYRO_DR 34.5SANS,62.72912087912088,62.67807921245421,0.148489010989011,-0.0974473443223443,43.407639,-70.711167
UN.DARTMTH 13.8DAR3,63.26011217948717,62.67807921245421,0.1030643315018315,0.4789686355311355,41.673345,-70.999246
UN.DARTMTH 13.8DART,63.26011217948717,62.67807921245421,0.1030643315018315,0.4789686355311355,41.673345,-70.999246
UN.DEERFLD569  DFL5,60.63138965201465,62.67807921245421,-0.0787706043956043,-1.9679189560439565,42.684,-72.9498
UN.DEERFLD569  FIFE,60.63138965201465,62.67807921245421,-0.0787706043956043,-1.9679189560439565,42.684,-72.9498
UN.DEVON   13.2DV11,60.07137248168498,62.67807921245421,-0.2868521062271062,-2.3198546245421245,41.208111,-73.106889
UN.DEVON   13.2DV12,60.07137248168498,62.67807921245421,-0.2868521062271062,-2.3198546245421245,41.208111,-73.106889
UN.DEVON   13.2DV13,60.07137248168498,62.67807921245421,-0.2868521062271062,-2.3198546245421245,41.208111,-73.106889
UN.DEVON   13.2DV14,60.07137248168498,62.67807921245421,-0.2868521062271062,-2.3198546245421245,41.208111,-73.106889
UN.DEVON   13.2DV15,60.26212797619047,62.67807921245421,-0.2834809981684981,-2.132470238095238,41.208111,-73.106889
UN.DEVON   13.2DV16,60.26212797619047,62.67807921245421,-0.2834809981684981,-2.132470238095238,41.208111,-73.106889
UN.DEVON   13.2DV17,60.26212797619047,62.67807921245421,-0.2834809981684981,-2.132470238095238,41.208111,-73.106889
UN.DEVON   13.2DV18,60.26212797619047,62.67807921245421,-0.2834809981684981,-2.132470238095238,41.208111,-73.106889
UN.DEVON   13.8DV10,60.26212797619047,62.67807921245421,-0.2834809981684981,-2.132470238095238,41.208111,-73.106889
UN.DEXTER  13.8DX1A,61.82184065934066,62.67807921245421,0.0748866758241758,-0.931125228937729,41.922387,-72.625379
UN.DEXTER  13.8DX1B,61.82184065934066,62.67807921245421,0.0748866758241758,-0.931125228937729,41.922387,-72.625379
UN.DIGHTON 115 DIGH,62.988286401098904,62.67807921245421,0.1037305402930403,0.2064766483516483,41.816237,-71.136094
UN.EAST_AVE13.8WINO,63.141800595238095,62.67807921245421,0.0680940934065934,0.3956272893772893,44.480794,-73.18841
UN.EAST_AVE34.5MCNL,63.141800595238095,62.67807921245421,0.0680940934065934,0.3956272893772893,44.480794,-73.18841
UN.EDDY    34.5AMOS,63.6984168956044,62.67807921245421,0.1442124542124542,0.8761252289377289,43.00317,-71.473301
UN.EDGAR   18.0ED1A,62.72042582417583,62.67807921245421,0.0779120879120879,-0.0355654761904761,42.240587,-70.964997
UN.EDGAR   18.0ED1B,62.72042582417583,62.67807921245421,0.0779120879120879,-0.0355654761904761,42.240587,-70.964997
UN.ELLSWRTH34.5ELLS,58.56212683150183,62.67807921245421,-2.535040064102564,-1.580912316849817,44.543655,-68.430748
UN.ENFLD_ME115 IND5,58.0240934065934,62.67807921245421,-2.3164697802197804,-2.3375160256410257,45.24575,-68.601833
UN.ESSEX   34.5ESSD,63.11230425824176,62.67807921245421,0.0680998168498168,0.3661252289377289,44.481282,-73.11332
UN.ESSEX   34.5ESSH,63.11230425824176,62.67807921245421,0.0680998168498168,0.3661252289377289,44.481282,-73.11332
UN.ESSEX   34.5GORD,63.11230425824176,62.67807921245421,0.0680998168498168,0.3661252289377289,44.481282,-73.11332
UN.E_FAIRFX34.5GMTW,62.306649496336995,62.67807921245421,0.0684832875457875,-0.4399130036630037,44.636573,-72.93121
UN.E_FAIRFX34.5LLAM,62.306649496336995,62.67807921245421,0.0684832875457875,-0.4399130036630037,44.636573,-72.93121
UN.E_SHORE 13.8NHP2,61.332513736263735,62.67807921245421,-0.2525389194139193,-1.093026556776557,41.288289,-72.904739
UN.E_SHORE 13.8NHP3,61.332513736263735,62.67807921245421,-0.2525389194139193,-1.093026556776557,41.288289,-72.904739
UN.E_SHORE 13.8NHP4,61.332513736263735,62.67807921245421,-0.2525389194139193,-1.093026556776557,41.288289,-72.904739
UN.E_SHORE 22  NHHB,61.332513736263735,62.67807921245421,-0.2525389194139193,-1.093026556776557,41.288289,-72.904739
UN.FALMOUTH25  OAKB,63.81312042124543,62.67807921245421,0.0825984432234432,1.0524427655677655,41.5634,-70.6121
UN.FALMOUTH25  WTIS,63.81312042124543,62.67807921245421,0.0825984432234432,1.0524427655677655,41.5634,-70.6121
UN.FALSVL  69  FALS,63.13654075091574,62.67807921245421,-0.1908413461538461,0.6493028846153847,41.956424,-73.369054
UN.FLAGG_PD13.8PINE,62.95236607142857,62.67807921245421,-0.0428743131868131,0.3171611721611721,42.550614,-71.843784
UN.FLORNCE 46  HNTG,62.67014079670329,62.67807921245421,0.0661080586080586,-0.0740464743589743,43.708682,-73.06736
UN.FLORNCE 46  PROC,62.67014079670329,62.67807921245421,0.0661080586080586,-0.0740464743589743,43.708682,-73.06736
UN.FORESTVL13.8BRF,60.8098466117216,62.67807921245421,-0.3246417124542124,-1.5435908882783882,41.663605,-72.895721
UN.FRAMNGHM13.8FMJ1,63.63238324175824,62.67807921245421,0.1526121794871794,0.8016918498168498,42.268282,-71.398317
UN.FRAMNGHM13.8FMJ2,63.63238324175824,62.67807921245421,0.1526121794871794,0.8016918498168498,42.268282,-71.398317
UN.FRAMNGHM13.8FMJ3,63.63238324175824,62.67807921245421,0.1526121794871794,0.8016918498168498,42.268282,-71.398317
UN.FRMINGTN34.5FRMS,60.16028960622711,62.67807921245421,-0.612205815018315,-1.9055837912087912,44.645614,-70.166099
UN.FRNKLNDR13.2FRDR,61.14911057692308,62.67807921245421,-0.1986183608058608,-1.330350274725275,41.799557,-73.116562
UN.FRNKLNSQ13.810CC,62.58661744505494,62.67807921245421,0.4372378663003663,-0.5286996336996337,41.816349,-71.405645
UN.FRNKLNSQ13.811CC,62.58661744505494,62.67807921245421,0.4372378663003663,-0.5286996336996337,41.816349,-71.405645
UN.FRNKLNSQ13.89CC,62.58661744505494,62.67807921245421,0.4372378663003663,-0.5286996336996337,41.816349,-71.405645
UN.GARVINS 34.5GARV,63.55671130952381,62.67807921245421,0.1440670787545787,0.7345650183150183,43.1625,-71.508
